{"type":"FeatureCollection","features":[{"type":"Feature","geometry":{"type":"Point","coordinates":[-85.60776,30.206152]},"properties":{"OBJECTID":2,"SOURCE":"PWS - Drinking Water","NAME":"BAY COUNTY WATER SYSTEM","TYPE":"COMMUNITY","FACILITYID":"1030050","STATUS":"Partially Operational","ADDRESS":"3411 TRANSMITTER RD\nPANAMA CITY, FL 32404"}},{"type":"Feature","geometry":{"type":"Point","coordinates":[-85.574831,30.140658]},"properties":{"OBJECTID":3,"SOURCE":"PWS - Drinking Water","NAME":"CALLAWAY, CITY OF WATER SYSTEM","TYPE":"COMMUNITY","FACILITYID":"1030141","STATUS":"Unknown","ADDRESS":"324 SOUTH BERTHE AVENUE\nCALLAWAY, FL 32404"}},{"type":"Feature","geometry":{"type":"Point","coordinates":[-85.614984,30.153106]},"properties":{"OBJECTID":4,"SOURCE":"PWS - Drinking Water","NAME":"SPRINGFIELD, CITY OF","TYPE":"COMMUNITY","FACILITYID":"1030148","STATUS":"Unknown","ADDRESS":"POST OFFICE DRAWER 3717(SYSTEM) 3529 EAST 3RD ST.\n\nSPRINGFIELD, FL 32404"}},{"type":"Feature","geometry":{"type":"Point","coordinates":[-85.621149,30.143652]},"properties":{"OBJECTID":5,"SOURCE":"PWS - Drinking Water","NAME":"WESTROCK CP, LLC - PANAMA CITY MILL","TYPE":"NONTRANSIENT NONCOMMUNITY","FACILITYID":"1030371","STATUS":"Unknown","ADDRESS":"1 EVERITT AVENUE\nPANAMA CITY, FL 32401"}},{"type":"Feature","geometry":{"type":"Point","coordinates":[-85.648727,30.241743]},"properties":{"OBJECTID":6,"SOURCE":"PWS - Drinking Water","NAME":"LYNN HAVEN, CITY OF WATER SYS.","TYPE":"COMMUNITY","FACILITYID":"1030435","STATUS":"Unknown","ADDRESS":"1105 OHIO AVENUE\nLYNN HAVEN, FL 32444"}},{"type":"Feature","geometry":{"type":"Point","coordinates":[-85.410617,29.945862]},"properties":{"OBJECTID":7,"SOURCE":"PWS - Drinking Water","NAME":"MEXICO BEACH, CITY OF","TYPE":"COMMUNITY","FACILITYID":"1030467","STATUS":"Unknown","ADDRESS":"113 N 22ND STREET, P.O. BOX 13425ATTN.:  THOMAS WILSON\n\nMEXICO BEACH, FL 32410"}},{"type":"Feature","geometry":{"type":"Point","coordinates":[-85.761845,30.182236]},"properties":{"OBJECTID":8,"SOURCE":"PWS - Drinking Water","NAME":"PANAMA CITY BEACH CITY OF","TYPE":"COMMUNITY","FACILITYID":"1030515","STATUS":"Unknown","ADDRESS":"7120 MCELVEY RD\nPANAMA CITY BEACH, FL 32413"}},{"type":"Feature","geometry":{"type":"Point","coordinates":[-85.671605,30.211764]},"properties":{"OBJECTID":9,"SOURCE":"PWS - Drinking Water","NAME":"PANAMA CITY RACQUET CLUB","TYPE":"NONCOMMUNITY","FACILITYID":"1030516","STATUS":"Unknown","ADDRESS":"3505 HWY 390\nPANAMA CITY, FL 32405"}},{"type":"Feature","geometry":{"type":"Point","coordinates":[-85.707486,30.18915]},"properties":{"OBJECTID":10,"SOURCE":"PWS - Drinking Water","NAME":"PANAMA CITY WATER SYSTEM","TYPE":"COMMUNITY","FACILITYID":"1030517","STATUS":"Unknown","ADDRESS":"2226 MICHIGAN AVENUE\nPANAMA CITY, FL 32405"}},{"type":"Feature","geometry":{"type":"Point","coordinates":[-85.605302,30.1293]},"properties":{"OBJECTID":11,"SOURCE":"PWS - Drinking Water","NAME":"PARKER, CITY OF WATER SYSTEM","TYPE":"COMMUNITY","FACILITYID":"1030520","STATUS":"Unknown","ADDRESS":"1001 WEST PARK STREET\nPARKER, FL 32405"}},{"type":"Feature","geometry":{"type":"Point","coordinates":[-85.684295,30.201272]},"properties":{"OBJECTID":12,"SOURCE":"PWS - Drinking Water","NAME":"ST. ANDREWS CREEKSIDE PARK, LLC","TYPE":"COMMUNITY","FACILITYID":"1030568","STATUS":"Unknown","ADDRESS":"1512 LISENBY COURT\nPANAMA CITY, FL 32405"}},{"type":"Feature","geometry":{"type":"Point","coordinates":[-85.440591,30.366351]},"properties":{"OBJECTID":13,"SOURCE":"PWS - Drinking Water","NAME":"WALLER ELEMENTARY SCHOOL","TYPE":"NONTRANSIENT NONCOMMUNITY","FACILITYID":"1030716","STATUS":"Unknown","ADDRESS":"11332 HIGHWAY 388\nYOUNGSTOWN, FL 32401"}},{"type":"Feature","geometry":{"type":"Point","coordinates":[-85.656918,30.23057]},"properties":{"OBJECTID":14,"SOURCE":"PWS - Drinking Water","NAME":"GULF POWER LANSING-SMITH PLANT","TYPE":"NONTRANSIENT NONCOMMUNITY","FACILITYID":"1030774","STATUS":"Fully Operational","ADDRESS":"P. O. BOX 1210\nLYNN HAVEN, FL 32444"}},{"type":"Feature","geometry":{"type":"Point","coordinates":[-85.591963,30.073058]},"properties":{"OBJECTID":15,"SOURCE":"PWS - Drinking Water","NAME":"AFRL AREA (TYNDALL AFB)","TYPE":"NONTRANSIENT NONCOMMUNITY","FACILITYID":"1030788","STATUS":"Temp Hurricane Closure","ADDRESS":"325 SC/CES119 ALABAMA AVE.\n\nTYNDALL AFB, FL 32403"}},{"type":"Feature","geometry":{"type":"Point","coordinates":[-85.62173,30.284505]},"properties":{"OBJECTID":16,"SOURCE":"PWS - Drinking Water","NAME":"DEER HAVEN PARK","TYPE":"COMMUNITY","FACILITYID":"1034054","STATUS":"Fully Operational","ADDRESS":"2812 HWY. 2321\nSOUTHPORT, FL 32409"}},{"type":"Feature","geometry":{"type":"Point","coordinates":[-85.683915,30.189877]},"properties":{"OBJECTID":17,"SOURCE":"PWS - Drinking Water","NAME":"LISENBY FOOD MART","TYPE":"NONCOMMUNITY","FACILITYID":"1034057","STATUS":"Temp Hurricane Closure","ADDRESS":"1408 W. 23RD ST.\nPANAMA CITY, FL 32405"}},{"type":"Feature","geometry":{"type":"Point","coordinates":[-85.628047,30.233118]},"properties":{"OBJECTID":18,"SOURCE":"PWS - Drinking Water","NAME":"LUCKY FOOD MART (AKA LYNN HAVEN TEXACO)","TYPE":"NONCOMMUNITY","FACILITYID":"1034060","STATUS":"Temp Hurricane Closure","ADDRESS":"4702 HWY 389\nPANAMA CITY, FL 32405"}},{"type":"Feature","geometry":{"type":"Point","coordinates":[-85.438746,30.366369]},"properties":{"OBJECTID":19,"SOURCE":"PWS - Drinking Water","NAME":"MR. MART #13","TYPE":"NONCOMMUNITY","FACILITYID":"1034062","STATUS":"Unknown","ADDRESS":"12039 HWY 231\nYOUNGSTOWN, FL 32466"}},{"type":"Feature","geometry":{"type":"Point","coordinates":[-85.549154,30.305556]},"properties":{"OBJECTID":20,"SOURCE":"PWS - Drinking Water","NAME":"M & M MARKET #3","TYPE":"NONCOMMUNITY","FACILITYID":"1034063","STATUS":"Unknown","ADDRESS":"8623 HWY 2301\nYOUNGSTOWN, FL 32466"}},{"type":"Feature","geometry":{"type":"Point","coordinates":[-85.53991,30.284811]},"properties":{"OBJECTID":21,"SOURCE":"PWS - Drinking Water","NAME":"BAYOU GEORGE SUPERMARKET","TYPE":"NONCOMMUNITY","FACILITYID":"1034065","STATUS":"Temp Hurricane Closure","ADDRESS":"7516 HWY 2301\nPANAMA CITY, FL 32404"}},{"type":"Feature","geometry":{"type":"Point","coordinates":[-85.484889,30.300552]},"properties":{"OBJECTID":22,"SOURCE":"PWS - Drinking Water","NAME":"BAYOU GEORGE HEAD START","TYPE":"NONTRANSIENT NONCOMMUNITY","FACILITYID":"1034066","STATUS":"Temp Hurricane Closure","ADDRESS":"8332 HUDSON ROAD\nPANAMA CITY, FL 32401"}},{"type":"Feature","geometry":{"type":"Point","coordinates":[-85.427822,30.433313]},"properties":{"OBJECTID":23,"SOURCE":"PWS - Drinking Water","NAME":"231 PLAZA","TYPE":"NONCOMMUNITY","FACILITYID":"1034069","STATUS":"Unknown","ADDRESS":"15821 HIGHWAY 231\nYOUNGSTOWN, FL 32466"}},{"type":"Feature","geometry":{"type":"Point","coordinates":[-85.586777,30.25678]},"properties":{"OBJECTID":24,"SOURCE":"PWS - Drinking Water","NAME":"M & M MARKET #5 (HOBO PANTRY #14)","TYPE":"NONCOMMUNITY","FACILITYID":"1034086","STATUS":"Unknown","ADDRESS":"5939 HWY 2311\nSOUTHPORT, FL 32404"}},{"type":"Feature","geometry":{"type":"Point","coordinates":[-85.542154,30.294492]},"properties":{"OBJECTID":25,"SOURCE":"PWS - Drinking Water","NAME":"GARNER'S SUPERMARKET","TYPE":"NONCOMMUNITY","FACILITYID":"1034096","STATUS":"Temp Hurricane Closure","ADDRESS":"8012 COUNTY ROAD 2301\nPANAMA CITY, FL 32404"}},{"type":"Feature","geometry":{"type":"Point","coordinates":[-85.695852,30.190857]},"properties":{"OBJECTID":26,"SOURCE":"PWS - Drinking Water","NAME":"PARAMORE PERIODONTAL OFFICE","TYPE":"NONCOMMUNITY","FACILITYID":"1034104","STATUS":"Temp Hurricane Closure","ADDRESS":"2240 WEST 24TH ST.\nPANAMA CITY, FL 32405"}},{"type":"Feature","geometry":{"type":"Point","coordinates":[-85.689364,30.407301]},"properties":{"OBJECTID":27,"SOURCE":"PWS - Drinking Water","NAME":"STACEY'S SWINGERS DAY CARE","TYPE":"NONTRANSIENT NONCOMMUNITY","FACILITYID":"1034106","STATUS":"Unknown","ADDRESS":"14130 HWY 77\nSOUTHPORT, FL 32409"}},{"type":"Feature","geometry":{"type":"Point","coordinates":[-85.39658,30.530946]},"properties":{"OBJECTID":29,"SOURCE":"PWS - Drinking Water","NAME":"PINE LAKE RV PARK","TYPE":"NONCOMMUNITY","FACILITYID":"1034114","STATUS":"Fully Operational","ADDRESS":"21036 US HWY 231\nFOUNTAIN, FL 32438"}},{"type":"Feature","geometry":{"type":"Point","coordinates":[-85.421984,30.473802]},"properties":{"OBJECTID":30,"SOURCE":"PWS - Drinking Water","NAME":"CHIODO'S 231 EXPRESS MARKET","TYPE":"NONCOMMUNITY","FACILITYID":"1034133","STATUS":"Unknown","ADDRESS":"17941 HWY 231\nFOUNTAIN, FL 32438"}},{"type":"Feature","geometry":{"type":"Point","coordinates":[-85.024169,30.443116]},"properties":{"OBJECTID":31,"SOURCE":"PWS - Drinking Water","NAME":"AIRPORT MOTEL","TYPE":"NONCOMMUNITY","FACILITYID":"1070008","STATUS":"Unknown","ADDRESS":"21901 STATE ROAD 20 EAST\nBLOUNTSTOWN, FL 32424"}},{"type":"Feature","geometry":{"type":"Point","coordinates":[-85.130683,30.541462]},"properties":{"OBJECTID":32,"SOURCE":"PWS - Drinking Water","NAME":"ALTHA, TOWN OF WATER SYSTEM","TYPE":"COMMUNITY","FACILITYID":"1070014","STATUS":"Unknown","ADDRESS":"HIGHWAY 71\nALTHA, FL 32421"}},{"type":"Feature","geometry":{"type":"Point","coordinates":[-85.182871,30.449555]},"properties":{"OBJECTID":33,"SOURCE":"PWS - Drinking Water","NAME":"CARR  SCHOOL","TYPE":"NONTRANSIENT NONCOMMUNITY","FACILITYID":"1070116","STATUS":"Unknown","ADDRESS":"18987 NW SR 73\nCLARKSVILLE, FL 32430"}},{"type":"Feature","geometry":{"type":"Point","coordinates":[-85.048272,30.433121]},"properties":{"OBJECTID":34,"SOURCE":"PWS - Drinking Water","NAME":"BLOUNTSTOWN, CITY OF","TYPE":"COMMUNITY","FACILITYID":"1070685","STATUS":"Unknown","ADDRESS":"WWTP OFFICE16140 SE JOHNSON STREET\n\nBLOUNTSTOWN, FL 32424"}},{"type":"Feature","geometry":{"type":"Point","coordinates":[-85.187782,30.436755]},"properties":{"OBJECTID":35,"SOURCE":"PWS - Drinking Water","NAME":"WACO STORE #29  (QUICK STOP #12)","TYPE":"NONCOMMUNITY","FACILITYID":"1074013","STATUS":"Unknown","ADDRESS":"12100 SR 20W\nCLARKSVILLE, FL 32430"}},{"type":"Feature","geometry":{"type":"Point","coordinates":[-85.19726,30.517625]},"properties":{"OBJECTID":36,"SOURCE":"PWS - Drinking Water","NAME":"SHELTON TRUCKING SERVICE, INC.","TYPE":"NONTRANSIENT NONCOMMUNITY","FACILITYID":"1074015","STATUS":"Unknown","ADDRESS":"24058 NW SR 73\nALTHA, FL 32421"}},{"type":"Feature","geometry":{"type":"Point","coordinates":[-87.474272,30.897558]},"properties":{"OBJECTID":37,"SOURCE":"PWS - Drinking Water","NAME":"BRATT-DAVISVILLE WATER SYSTEM","TYPE":"COMMUNITY","FACILITYID":"1170085","STATUS":"Unknown","ADDRESS":"4950 HWY 99A\nWALNUT HILL, FL 32568"}},{"type":"Feature","geometry":{"type":"Point","coordinates":[-87.325318,30.949658]},"properties":{"OBJECTID":38,"SOURCE":"PWS - Drinking Water","NAME":"CENTRAL WATER WORKS, INC.","TYPE":"COMMUNITY","FACILITYID":"1170126","STATUS":"Unknown","ADDRESS":"1101 BYRNEVILLE ROAD\nCENTURY, FL 32535"}},{"type":"Feature","geometry":{"type":"Point","coordinates":[-87.319188,30.633651]},"properties":{"OBJECTID":39,"SOURCE":"PWS - Drinking Water","NAME":"COTTAGE HILL WATER WORKS","TYPE":"COMMUNITY","FACILITYID":"1170168","STATUS":"Unknown","ADDRESS":"16 WILLIAMS DITCH RD.\nCANTONMENT, FL 32533"}},{"type":"Feature","geometry":{"type":"Point","coordinates":[-87.352802,30.610762]},"properties":{"OBJECTID":40,"SOURCE":"PWS - Drinking Water","NAME":"FARM HILL UTILITIES, INC.","TYPE":"COMMUNITY","FACILITYID":"1170259","STATUS":"Unknown","ADDRESS":"120 MADRID ROAD\nCANTONMENT, FL 32533"}},{"type":"Feature","geometry":{"type":"Point","coordinates":[-87.289398,30.582441]},"properties":{"OBJECTID":41,"SOURCE":"PWS - Drinking Water","NAME":"GONZALEZ UTILITIES ASSOCIATION, INC.","TYPE":"COMMUNITY","FACILITYID":"1170302","STATUS":"Unknown","ADDRESS":"1590 OLD CHEMSTRAND ROAD\nCANTONMENT, FL 32533"}},{"type":"Feature","geometry":{"type":"Point","coordinates":[-87.191514,30.326267]},"properties":{"OBJECTID":42,"SOURCE":"PWS - Drinking Water","NAME":"GULF ISLANDS NATIONAL SEASHORE","TYPE":"NONTRANSIENT NONCOMMUNITY","FACILITYID":"1170319","STATUS":"Unknown","ADDRESS":"1400 FT. PICKENS RD./BLDG. 5\nGULF BREEZE, FL 32561"}},{"type":"Feature","geometry":{"type":"Point","coordinates":[-87.346883,30.716951]},"properties":{"OBJECTID":43,"SOURCE":"PWS - Drinking Water","NAME":"MOLINO UTILITIES, INC.","TYPE":"COMMUNITY","FACILITYID":"1170475","STATUS":"Unknown","ADDRESS":"1640 MOLINO ROAD\nMOLINO, FL 32577"}},{"type":"Feature","geometry":{"type":"Point","coordinates":[-87.251054,30.600324]},"properties":{"OBJECTID":44,"SOURCE":"PWS - Drinking Water","NAME":"ASCEND PERFORMANCE MATERIALS (SOLUTIA)","TYPE":"NONTRANSIENT NONCOMMUNITY","FACILITYID":"1170477","STATUS":"Unknown","ADDRESS":"3000 OLD CHEMSTRAND ROAD\nCANTONMENT, FL 32533"}},{"type":"Feature","geometry":{"type":"Point","coordinates":[-87.199182,30.529701]},"properties":{"OBJECTID":45,"SOURCE":"PWS - Drinking Water","NAME":"EMERALD COAST UTILITIES AUTHORITY","TYPE":"COMMUNITY","FACILITYID":"1170525","STATUS":"Unknown","ADDRESS":"9255 STURDEVANT STREETPOST OFFICE BOX 15311\n\nPENSACOLA, FL 32514"}},{"type":"Feature","geometry":{"type":"Point","coordinates":[-87.294294,30.386412]},"properties":{"OBJECTID":46,"SOURCE":"PWS - Drinking Water","NAME":"PEOPLES WATER SERVICE COMPANY","TYPE":"COMMUNITY","FACILITYID":"1170527","STATUS":"Unknown","ADDRESS":"905 LOWNDE AVENUEP.O.BOX 4815\n\nPENSACOLA, FL 32507"}},{"type":"Feature","geometry":{"type":"Point","coordinates":[-87.34512,30.934979]},"properties":{"OBJECTID":47,"SOURCE":"PWS - Drinking Water","NAME":"BLUFF SPRINGS (R.L.D.S.) CAMPGROUND","TYPE":"NONCOMMUNITY","FACILITYID":"1170552","STATUS":"Unknown","ADDRESS":"1300 LIAHONA TRAIL\nMCDAVID, FL 32568"}},{"type":"Feature","geometry":{"type":"Point","coordinates":[-87.261924,30.976071]},"properties":{"OBJECTID":48,"SOURCE":"PWS - Drinking Water","NAME":"CENTURY, TOWN OF","TYPE":"COMMUNITY","FACILITYID":"1170613","STATUS":"Unknown","ADDRESS":"7995 N. CENTURY BLVD.P.O. DRAWER 790\n\nCENTURY, FL 32535"}},{"type":"Feature","geometry":{"type":"Point","coordinates":[-87.218645,30.54906]},"properties":{"OBJECTID":49,"SOURCE":"PWS - Drinking Water","NAME":"UNIVERSITY OF WEST FLORIDA","TYPE":"COMMUNITY","FACILITYID":"1170703","STATUS":"Unknown","ADDRESS":"11000 UNIVERSITY PKY, BLDG. 95\nPENSACOLA, FL 32514"}},{"type":"Feature","geometry":{"type":"Point","coordinates":[-87.468557,30.817033]},"properties":{"OBJECTID":50,"SOURCE":"PWS - Drinking Water","NAME":"WALNUT HILL WATER WORKS","TYPE":"COMMUNITY","FACILITYID":"1170718","STATUS":"Unknown","ADDRESS":"4950 HIGHWAY 99-A\nWALNUT HILL, FL 32568"}},{"type":"Feature","geometry":{"type":"Point","coordinates":[-87.304324,30.34827]},"properties":{"OBJECTID":51,"SOURCE":"PWS - Drinking Water","NAME":"NAS PENSACOLA / CORRY STATION","TYPE":"COMMUNITY","FACILITYID":"1170814","STATUS":"Unknown","ADDRESS":"NTTC CORRY, BUILDING 1096\nPENSACOLA, FL 32508"}},{"type":"Feature","geometry":{"type":"Point","coordinates":[-87.341045,30.464625]},"properties":{"OBJECTID":52,"SOURCE":"PWS - Drinking Water","NAME":"NAS SAUFLEY FIELD","TYPE":"COMMUNITY","FACILITYID":"1170899","STATUS":"Unknown","ADDRESS":"BLDG 804NAS SAUFLEY FIELD\n\nPENSACOLA, FL 32509"}},{"type":"Feature","geometry":{"type":"Point","coordinates":[-84.39643,30.02012]},"properties":{"OBJECTID":53,"SOURCE":"PWS - Drinking Water","NAME":"ALLIGATOR POINT WATER RESOURCE DISTRICT","TYPE":"COMMUNITY","FACILITYID":"1190013","STATUS":"Partially Operational","ADDRESS":"P.O. BOX 155\nPANACEA, FL 32346"}},{"type":"Feature","geometry":{"type":"Point","coordinates":[-84.123547,30.468644]},"properties":{"OBJECTID":54,"SOURCE":"PWS - Drinking Water","NAME":"BAY NORTH WATER SYSTEM","TYPE":"NONCOMMUNITY","FACILITYID":"1190109","STATUS":"Fully Operational","ADDRESS":"P.O. BOX 15651\nTALLAHASSEE, FL 32317"}},{"type":"Feature","geometry":{"type":"Point","coordinates":[-84.655553,29.854707]},"properties":{"OBJECTID":55,"SOURCE":"PWS - Drinking Water","NAME":"CARRABELLE, CITY OF WATER SYS.","TYPE":"COMMUNITY","FACILITYID":"1190118","STATUS":"Unknown","ADDRESS":"1001 GRAY AVENUE\nCARRABELLE, FL 32322"}},{"type":"Feature","geometry":{"type":"Point","coordinates":[-84.983856,29.728737]},"properties":{"OBJECTID":56,"SOURCE":"PWS - Drinking Water","NAME":"APALACHICOLA, CITY OF","TYPE":"COMMUNITY","FACILITYID":"1190150","STATUS":"Fully Operational","ADDRESS":"#1 AVE E\nAPALACHICOLA, FL 32320"}},{"type":"Feature","geometry":{"type":"Point","coordinates":[-84.887916,29.73339]},"properties":{"OBJECTID":57,"SOURCE":"PWS - Drinking Water","NAME":"EASTPOINT WATER & SEWER DIST.","TYPE":"COMMUNITY","FACILITYID":"1190236","STATUS":"Unknown","ADDRESS":"40 ISLAND DRIVE\nEASTPOINT, FL 32328"}},{"type":"Feature","geometry":{"type":"Point","coordinates":[-84.655553,29.854707]},"properties":{"OBJECTID":58,"SOURCE":"PWS - Drinking Water","NAME":"LANARK VILLAGE (CITY OF CARRABELLE)","TYPE":"COMMUNITY","FACILITYID":"1190414","STATUS":"Fully Operational","ADDRESS":"1001 GRAY AVENUE\nCARRABELLE, FL 32322"}},{"type":"Feature","geometry":{"type":"Point","coordinates":[-84.865272,29.662536]},"properties":{"OBJECTID":59,"SOURCE":"PWS - Drinking Water","NAME":"WATER MGMT SERVICES (ST. GEORGE ISLAND)","TYPE":"COMMUNITY","FACILITYID":"1190789","STATUS":"Unknown","ADDRESS":"139 GULF BEACH DR W\nST GEORGE ISLAND, FL 32328"}},{"type":"Feature","geometry":{"type":"Point","coordinates":[-84.509808,29.917784]},"properties":{"OBJECTID":60,"SOURCE":"PWS - Drinking Water","NAME":"FSU MARINE LABORATORY","TYPE":"NONCOMMUNITY","FACILITYID":"1194041","STATUS":"Fully Operational","ADDRESS":"3618 HIGHWAY 98\nST. TERESA, FL 32358"}},{"type":"Feature","geometry":{"type":"Point","coordinates":[-84.431581,30.50419]},"properties":{"OBJECTID":61,"SOURCE":"PWS - Drinking Water","NAME":"WRIGHT LAKE RECREATION AREA","TYPE":"NONCOMMUNITY","FACILITYID":"1194043","STATUS":"Temp Hurricane Closure","ADDRESS":"FOREST ROAD 101\nSUMATRA, FL 32351"}},{"type":"Feature","geometry":{"type":"Point","coordinates":[-84.81222,30.655064]},"properties":{"OBJECTID":62,"SOURCE":"PWS - Drinking Water","NAME":"CHATTAHOOCHEE, CITY OF","TYPE":"COMMUNITY","FACILITYID":"1200134","STATUS":"Unknown","ADDRESS":"P O BOX 88\nCHATTAHOOCHEE, FL 32324"}},{"type":"Feature","geometry":{"type":"Point","coordinates":[-84.81222,30.655064]},"properties":{"OBJECTID":63,"SOURCE":"PWS - Drinking Water","NAME":"FLORIDA STATE HOSPITAL","TYPE":"COMMUNITY","FACILITYID":"1200275","STATUS":"Unknown","ADDRESS":"P. O. BOX 1000\nCHATTAHOOCHEE, FL 32324"}},{"type":"Feature","geometry":{"type":"Point","coordinates":[-84.403325,30.59725]},"properties":{"OBJECTID":64,"SOURCE":"PWS - Drinking Water","NAME":"HAVANA, TOWN OF WATER SYSTEM","TYPE":"COMMUNITY","FACILITYID":"1200334","STATUS":"Unknown","ADDRESS":"P.O. BOX 1068\nHAVANA, FL 32333"}},{"type":"Feature","geometry":{"type":"Point","coordinates":[-84.522663,30.553286]},"properties":{"OBJECTID":65,"SOURCE":"PWS - Drinking Water","NAME":"RENTZ'S MOBILE HOME PARK","TYPE":"COMMUNITY","FACILITYID":"1200459","STATUS":"Unknown","ADDRESS":"71 RENTZ ROAD\nQUINCY, FL 32351"}},{"type":"Feature","geometry":{"type":"Point","coordinates":[-84.582401,30.588164]},"properties":{"OBJECTID":66,"SOURCE":"PWS - Drinking Water","NAME":"QUINCY, CITY OF W/S","TYPE":"COMMUNITY","FACILITYID":"1200551","STATUS":"Unknown","ADDRESS":"404 W. JEFFERSON ST.\nQUINCY, FL 32351"}},{"type":"Feature","geometry":{"type":"Point","coordinates":[-84.743,30.569975]},"properties":{"OBJECTID":67,"SOURCE":"PWS - Drinking Water","NAME":"GREENSBORO, TOWN OF WATER SYS.","TYPE":"COMMUNITY","FACILITYID":"1200687","STATUS":"Unknown","ADDRESS":"P.O. BOX 66\nGREENSBORO, FL 32330"}},{"type":"Feature","geometry":{"type":"Point","coordinates":[-84.663572,30.618975]},"properties":{"OBJECTID":68,"SOURCE":"PWS - Drinking Water","NAME":"GRETNA, CITY OF","TYPE":"COMMUNITY","FACILITYID":"1200688","STATUS":"Unknown","ADDRESS":"14615 MAIN STREET\nGRETNA, FL 32332"}},{"type":"Feature","geometry":{"type":"Point","coordinates":[-84.597887,30.585666]},"properties":{"OBJECTID":69,"SOURCE":"PWS - Drinking Water","NAME":"GADSDEN CO REGIONAL W/S","TYPE":"COMMUNITY","FACILITYID":"1200797","STATUS":"Unknown","ADDRESS":"1640 WEST JEFFERSON STREET\nQUINCY, FL 32351"}},{"type":"Feature","geometry":{"type":"Point","coordinates":[-84.675385,30.694369]},"properties":{"OBJECTID":70,"SOURCE":"PWS - Drinking Water","NAME":"JAMIESON WATER SYSTEM","TYPE":"COMMUNITY","FACILITYID":"1200885","STATUS":"Unknown","ADDRESS":"15 ROGER LEWIS LANE\nQUINCY, FL 32351"}},{"type":"Feature","geometry":{"type":"Point","coordinates":[-84.81222,30.655064]},"properties":{"OBJECTID":71,"SOURCE":"PWS - Drinking Water","NAME":"GADSDEN CO I-10 REST AREA","TYPE":"NONCOMMUNITY","FACILITYID":"1204025","STATUS":"Unknown","ADDRESS":"I-10 EXIT 161\nCHATTAHOOCHEE, FL 32324"}},{"type":"Feature","geometry":{"type":"Point","coordinates":[-84.873486,30.61138]},"properties":{"OBJECTID":72,"SOURCE":"PWS - Drinking Water","NAME":"ST. JAMES COMMUNITY","TYPE":"COMMUNITY","FACILITYID":"1204029","STATUS":"Unknown","ADDRESS":"2040 ASPALAGA ROAD\nQUINCY, FL 32351"}},{"type":"Feature","geometry":{"type":"Point","coordinates":[-83.884271,30.58001]},"properties":{"OBJECTID":73,"SOURCE":"PWS - Drinking Water","NAME":"JOYLAND WATER SYSTEM","TYPE":"COMMUNITY","FACILITYID":"1204051","STATUS":"Unknown","ADDRESS":"60 PONTIAC ROAD\nMONTICELLO, FL 32344"}},{"type":"Feature","geometry":{"type":"Point","coordinates":[-84.81184,30.609065]},"properties":{"OBJECTID":74,"SOURCE":"PWS - Drinking Water","NAME":"TRIPLE C'S (AKA KOA CAMPGROUND)","TYPE":"NONCOMMUNITY","FACILITYID":"1204053","STATUS":"Unknown","ADDRESS":"2309 FLAT CREEK ROAD\nCHATTAHOOCHEE, FL 32324"}},{"type":"Feature","geometry":{"type":"Point","coordinates":[-84.638208,30.419242]},"properties":{"OBJECTID":75,"SOURCE":"PWS - Drinking Water","NAME":"PAT THOMAS  PARK","TYPE":"NONCOMMUNITY","FACILITYID":"1204055","STATUS":"Unknown","ADDRESS":"949 HOPKINS LANDING\nQUINCY, FL 32344"}},{"type":"Feature","geometry":{"type":"Point","coordinates":[-84.643124,30.591584]},"properties":{"OBJECTID":76,"SOURCE":"PWS - Drinking Water","NAME":"V STOP","TYPE":"NONCOMMUNITY","FACILITYID":"1204057","STATUS":"Unknown","ADDRESS":"16854 US HIGHWAY 90\nQUINCY, FL 32332"}},{"type":"Feature","geometry":{"type":"Point","coordinates":[-84.36443,30.656075]},"properties":{"OBJECTID":77,"SOURCE":"PWS - Drinking Water","NAME":"CONCORD COUNTRY STORE(DUKE WATER SYSTEM)","TYPE":"NONCOMMUNITY","FACILITYID":"1204059","STATUS":"Unknown","ADDRESS":"4354 CONCORD ROAD\nHAVANA, FL 32333"}},{"type":"Feature","geometry":{"type":"Point","coordinates":[-84.650252,30.517785]},"properties":{"OBJECTID":78,"SOURCE":"PWS - Drinking Water","NAME":"HINSON HEIGHTS","TYPE":"COMMUNITY","FACILITYID":"1204063","STATUS":"Unknown","ADDRESS":"P.O.BOX 1679\nQUINCY, FL 32351"}},{"type":"Feature","geometry":{"type":"Point","coordinates":[-84.650252,30.517785]},"properties":{"OBJECTID":79,"SOURCE":"PWS - Drinking Water","NAME":"TOBACCO ROAD","TYPE":"COMMUNITY","FACILITYID":"1204064","STATUS":"Unknown","ADDRESS":"COUNTY ROAD 159 AND TOBACCO ROAD\nQUINCY, FL 32351"}},{"type":"Feature","geometry":{"type":"Point","coordinates":[-84.641845,30.42329]},"properties":{"OBJECTID":80,"SOURCE":"PWS - Drinking Water","NAME":"HAMMOCK CREEK","TYPE":"COMMUNITY","FACILITYID":"1204065","STATUS":"Unknown","ADDRESS":"470 GOULD ROAD\nQUNICY, FL 32353"}},{"type":"Feature","geometry":{"type":"Point","coordinates":[-84.667867,30.593015]},"properties":{"OBJECTID":81,"SOURCE":"PWS - Drinking Water","NAME":"MEADOWS GROCERY","TYPE":"COMMUNITY","FACILITYID":"1204067","STATUS":"Unknown","ADDRESS":"5335 GREENSBORO HWY\nQUINCY, FL 32351"}},{"type":"Feature","geometry":{"type":"Point","coordinates":[-84.42507,30.610847]},"properties":{"OBJECTID":82,"SOURCE":"PWS - Drinking Water","NAME":"CLINTON NURSERIES, INC - NORTH","TYPE":"NONTRANSIENT NONCOMMUNITY","FACILITYID":"1204068","STATUS":"Unknown","ADDRESS":"737 SALEM RD.P.O. BOX 997\n\nHAVANA, FL 32333"}},{"type":"Feature","geometry":{"type":"Point","coordinates":[-84.42507,30.610847]},"properties":{"OBJECTID":83,"SOURCE":"PWS - Drinking Water","NAME":"CLINTON NURSERIES, INC - SOUTH","TYPE":"NONTRANSIENT NONCOMMUNITY","FACILITYID":"1204069","STATUS":"Unknown","ADDRESS":"737 SALEM RD.P.O. BOX 997\n\nHAVANA, FL 32333"}},{"type":"Feature","geometry":{"type":"Point","coordinates":[-85.2005,30.13813]},"properties":{"OBJECTID":84,"SOURCE":"PWS - Drinking Water","NAME":"DEAD LAKES COUNTY PARK","TYPE":"NONCOMMUNITY","FACILITYID":"1230191","STATUS":"Temp Hurricane Closure","ADDRESS":"510 GARY ROWELL ROAD\nPORT ST. JOE, FL 32465"}},{"type":"Feature","geometry":{"type":"Point","coordinates":[-85.302295,29.827181]},"properties":{"OBJECTID":85,"SOURCE":"PWS - Drinking Water","NAME":"PORT ST. JOE, CITY OF","TYPE":"COMMUNITY","FACILITYID":"1230545","STATUS":"Unknown","ADDRESS":"WATER PLANT ROAD (COUNTY ROAD 382)\nPORT ST. JOE, FL 32457"}},{"type":"Feature","geometry":{"type":"Point","coordinates":[-85.195571,30.11234]},"properties":{"OBJECTID":86,"SOURCE":"PWS - Drinking Water","NAME":"WEWAHITCHKA, CITY OF","TYPE":"COMMUNITY","FACILITYID":"1230734","STATUS":"Unknown","ADDRESS":"402 EAST LAKE GROVE ROAD\nWEWAHITCHKA, FL 32465"}},{"type":"Feature","geometry":{"type":"Point","coordinates":[-85.31037,29.815799]},"properties":{"OBJECTID":87,"SOURCE":"PWS - Drinking Water","NAME":"LIGHTHOUSE UTILITIES","TYPE":"COMMUNITY","FACILITYID":"1230848","STATUS":"Unknown","ADDRESS":"406 MARINA DR\nPORT ST. JOE, FL 32456"}},{"type":"Feature","geometry":{"type":"Point","coordinates":[-85.22307,29.683393]},"properties":{"OBJECTID":88,"SOURCE":"PWS - Drinking Water","NAME":"INDIAN PASS CAMPGROUND","TYPE":"NONCOMMUNITY","FACILITYID":"1230909","STATUS":"Unknown","ADDRESS":"2817 INDIAN PASS ROAD\nPORT ST. JOE, FL 32456"}},{"type":"Feature","geometry":{"type":"Point","coordinates":[-85.161993,29.909516]},"properties":{"OBJECTID":89,"SOURCE":"PWS - Drinking Water","NAME":"GULF FORESTRY WORK CAMP","TYPE":"COMMUNITY","FACILITYID":"1234011","STATUS":"Unknown","ADDRESS":"3222 DOC WHITFIELD ROAD\nWEWAHITCHKA, FL 32465"}},{"type":"Feature","geometry":{"type":"Point","coordinates":[-85.147141,30.01518]},"properties":{"OBJECTID":90,"SOURCE":"PWS - Drinking Water","NAME":"BRYANT'S LANDING","TYPE":"NONCOMMUNITY","FACILITYID":"1234012","STATUS":"Unknown","ADDRESS":"P. O. BOX 486800 BRYANT'S LANDING RD. (OFF C.R. 381)\n\nWEWAHITCHKA, FL 32465"}},{"type":"Feature","geometry":{"type":"Point","coordinates":[-85.261722,30.17175]},"properties":{"OBJECTID":91,"SOURCE":"PWS - Drinking Water","NAME":"GULF CORRECTIONAL INSTITUTION","TYPE":"COMMUNITY","FACILITYID":"1234013","STATUS":"Unknown","ADDRESS":"500 IKE STEELE ROAD\nWEWAHITCHKA, FL 32465"}},{"type":"Feature","geometry":{"type":"Point","coordinates":[-85.209422,30.156173]},"properties":{"OBJECTID":92,"SOURCE":"PWS - Drinking Water","NAME":"CREEK STOP & DELI","TYPE":"NONCOMMUNITY","FACILITYID":"1234021","STATUS":"Unknown","ADDRESS":"3050 HWY 71\nWEWAHITCHKA, FL 32465"}},{"type":"Feature","geometry":{"type":"Point","coordinates":[-85.153059,30.005226]},"properties":{"OBJECTID":93,"SOURCE":"PWS - Drinking Water","NAME":"DALKEITH RECREATION PARK","TYPE":"NONCOMMUNITY","FACILITYID":"1234024","STATUS":"Unknown","ADDRESS":"HWY 381 AT FIELDCREST LANE\nWEWAHITCHKA, FL 32465"}},{"type":"Feature","geometry":{"type":"Point","coordinates":[-85.738149,30.924718]},"properties":{"OBJECTID":94,"SOURCE":"PWS - Drinking Water","NAME":"BETHLEHEM HIGH SCHOOL","TYPE":"NONTRANSIENT NONCOMMUNITY","FACILITYID":"1300066","STATUS":"Unknown","ADDRESS":"2767 HIGHWAY 160\nBONIFAY, FL 32425"}},{"type":"Feature","geometry":{"type":"Point","coordinates":[-85.67271,30.789774]},"properties":{"OBJECTID":95,"SOURCE":"PWS - Drinking Water","NAME":"BONIFAY, CITY OF WATER DEPT.","TYPE":"COMMUNITY","FACILITYID":"1300083","STATUS":"Unknown","ADDRESS":"611 MARTIN LUTHER KING JR AVE\nBONIFAY, FL 32425"}},{"type":"Feature","geometry":{"type":"Point","coordinates":[-85.756596,30.857366]},"properties":{"OBJECTID":96,"SOURCE":"PWS - Drinking Water","NAME":"JOYCE E. SNARE WATER WORKS","TYPE":"COMMUNITY","FACILITYID":"1300214","STATUS":"Unknown","ADDRESS":"2648 SHERWOOD DRIVE\nBONIFAY, FL 32425"}},{"type":"Feature","geometry":{"type":"Point","coordinates":[-85.754651,30.873644]},"properties":{"OBJECTID":97,"SOURCE":"PWS - Drinking Water","NAME":"ESTO, TOWN OF","TYPE":"COMMUNITY","FACILITYID":"1300247","STATUS":"Unknown","ADDRESS":"CITY HALL HWY. 79\nBONIFAY, FL 32425"}},{"type":"Feature","geometry":{"type":"Point","coordinates":[-85.621814,30.98116]},"properties":{"OBJECTID":98,"SOURCE":"PWS - Drinking Water","NAME":"NOMA WATER WORKS","TYPE":"COMMUNITY","FACILITYID":"1300498","STATUS":"Unknown","ADDRESS":"COMMUNITY CENTER - HWY 175 NORTH3467 SKIPPER AVENUE\n\nBONIFAY, FL 32425"}},{"type":"Feature","geometry":{"type":"Point","coordinates":[-85.571147,30.954092]},"properties":{"OBJECTID":99,"SOURCE":"PWS - Drinking Water","NAME":"POPLAR SPRINGS HIGH SCHOOL","TYPE":"NONTRANSIENT NONCOMMUNITY","FACILITYID":"1300544","STATUS":"Unknown","ADDRESS":"3710 TILLMAN ROAD\nGRACEVILLE, FL 32440"}},{"type":"Feature","geometry":{"type":"Point","coordinates":[-85.820244,30.942249]},"properties":{"OBJECTID":100,"SOURCE":"PWS - Drinking Water","NAME":"SHAWN'S GROCERY","TYPE":"NONCOMMUNITY","FACILITYID":"1302003","STATUS":"Unknown","ADDRESS":"1296 HIGHWAY 179WKA WATSONS COUNTRY CORNER\n\nBONIFAY, FL 32425"}},{"type":"Feature","geometry":{"type":"Point","coordinates":[-86.015711,30.909872]},"properties":{"OBJECTID":101,"SOURCE":"PWS - Drinking Water","NAME":"M & M GENERAL STORE","TYPE":"NONCOMMUNITY","FACILITYID":"1302005","STATUS":"Unknown","ADDRESS":"1574 HWY 185\nWESTVILLE, FL 32464"}},{"type":"Feature","geometry":{"type":"Point","coordinates":[-85.698146,30.963253]},"properties":{"OBJECTID":102,"SOURCE":"PWS - Drinking Water","NAME":"TEEN CHALLENGE WEST FLORIDA","TYPE":"COMMUNITY","FACILITYID":"1302006","STATUS":"Unknown","ADDRESS":"1213 HOPE LANE\nBONIFAY, FL 32425"}},{"type":"Feature","geometry":{"type":"Point","coordinates":[-85.724889,30.807552]},"properties":{"OBJECTID":103,"SOURCE":"PWS - Drinking Water","NAME":"COUNTRY CHAT & CHEW","TYPE":"NONCOMMUNITY","FACILITYID":"1303030","STATUS":"Unknown","ADDRESS":"2269 BOSWELL ROAD\nBONIFAY, FL 32425"}},{"type":"Feature","geometry":{"type":"Point","coordinates":[-85.851626,30.774335]},"properties":{"OBJECTID":104,"SOURCE":"PWS - Drinking Water","NAME":"WESTVILLE, TOWN OF","TYPE":"COMMUNITY","FACILITYID":"1304033","STATUS":"Unknown","ADDRESS":"2523 NORTH PINE STREETP.O.BOX 123\n\nWESTVILLE, FL 23464"}},{"type":"Feature","geometry":{"type":"Point","coordinates":[-85.936153,30.727825]},"properties":{"OBJECTID":105,"SOURCE":"PWS - Drinking Water","NAME":"PONCE DE LEON, TOWN OF","TYPE":"COMMUNITY","FACILITYID":"1304034","STATUS":"Unknown","ADDRESS":"1580 HIGHWAY 90 (TOWN HALL)\nPONCE DE LEON, FL 32455"}},{"type":"Feature","geometry":{"type":"Point","coordinates":[-85.948657,30.770093]},"properties":{"OBJECTID":106,"SOURCE":"PWS - Drinking Water","NAME":"VORTEX SPRING (MAIN)","TYPE":"NONCOMMUNITY","FACILITYID":"1304036","STATUS":"Unknown","ADDRESS":"1517 VORTEX SPRING LANE\nPONCE DE LEON, FL 32455"}},{"type":"Feature","geometry":{"type":"Point","coordinates":[-85.948657,30.770093]},"properties":{"OBJECTID":107,"SOURCE":"PWS - Drinking Water","NAME":"VORTEX SPRINGS (OTTER CREEK LODGE)","TYPE":"NONCOMMUNITY","FACILITYID":"1304037","STATUS":"Unknown","ADDRESS":"1517 VORTEX SPRINGS LN\nPONCE DE LEON, FL 32455"}},{"type":"Feature","geometry":{"type":"Point","coordinates":[-85.392671,30.689078]},"properties":{"OBJECTID":108,"SOURCE":"PWS - Drinking Water","NAME":"ALFORD, TOWN OF","TYPE":"COMMUNITY","FACILITYID":"1320011","STATUS":"Unknown","ADDRESS":"1768 US 231\nALFORD, FL 32420"}},{"type":"Feature","geometry":{"type":"Point","coordinates":[-84.944389,30.796228]},"properties":{"OBJECTID":109,"SOURCE":"PWS - Drinking Water","NAME":"APALACHEE CORRECTIONAL INSTITUTION","TYPE":"COMMUNITY","FACILITYID":"1320025","STATUS":"Unknown","ADDRESS":"2015 W. UNIT DRIVE\nSNEADS, FL 32460"}},{"type":"Feature","geometry":{"type":"Point","coordinates":[-85.402423,30.951423]},"properties":{"OBJECTID":110,"SOURCE":"PWS - Drinking Water","NAME":"CAMPBELLTON WATER DEPARTMENT","TYPE":"COMMUNITY","FACILITYID":"1320111","STATUS":"Unknown","ADDRESS":"5283 HIGHWAY 231\nCAMPBELLTON, FL 32426"}},{"type":"Feature","geometry":{"type":"Point","coordinates":[-85.376079,30.795793]},"properties":{"OBJECTID":111,"SOURCE":"PWS - Drinking Water","NAME":"COTTONDALE WATER SYSTEM","TYPE":"COMMUNITY","FACILITYID":"1320143","STATUS":"Unknown","ADDRESS":"2659 FRONT STREET\nCOTTONDALE, FL 32431"}},{"type":"Feature","geometry":{"type":"Point","coordinates":[-85.525857,30.955664]},"properties":{"OBJECTID":112,"SOURCE":"PWS - Drinking Water","NAME":"GRACEVILLE, CITY OF","TYPE":"COMMUNITY","FACILITYID":"1320145","STATUS":"Unknown","ADDRESS":"865 6TH AVENUE\nGRACEVILLE, FL 32440"}},{"type":"Feature","geometry":{"type":"Point","coordinates":[-85.296527,30.779017]},"properties":{"OBJECTID":113,"SOURCE":"PWS - Drinking Water","NAME":"DOT MAINTENANCE YARD","TYPE":"NONTRANSIENT NONCOMMUNITY","FACILITYID":"1320263","STATUS":"Unknown","ADDRESS":"2956 STATE CORRECTIONAL ROAD\nMARIANNA, FL 32448"}},{"type":"Feature","geometry":{"type":"Point","coordinates":[-85.407933,30.995516]},"properties":{"OBJECTID":114,"SOURCE":"PWS - Drinking Water","NAME":"FLORIDA WELCOME CENTER","TYPE":"NONCOMMUNITY","FACILITYID":"1320277","STATUS":"Unknown","ADDRESS":"RT. 1 BOX 91(5865 US HWY 231)\n\nCAMPBELLTON, FL 32426"}},{"type":"Feature","geometry":{"type":"Point","coordinates":[-85.162352,30.869991]},"properties":{"OBJECTID":115,"SOURCE":"PWS - Drinking Water","NAME":"GREENWOOD WATER SYSTEM","TYPE":"COMMUNITY","FACILITYID":"1320311","STATUS":"Unknown","ADDRESS":"CORNER OF HIGHWAY 71 AND FORT ROAD\nGREENWOOD, FL 32443"}},{"type":"Feature","geometry":{"type":"Point","coordinates":[-85.161726,30.956235]},"properties":{"OBJECTID":116,"SOURCE":"PWS - Drinking Water","NAME":"MALONE, TOWN OF WATER SYSTEM","TYPE":"COMMUNITY","FACILITYID":"1320440","STATUS":"Unknown","ADDRESS":"5182 9TH AVENUE\nMALONE, FL 32445"}},{"type":"Feature","geometry":{"type":"Point","coordinates":[-85.29647,30.777444]},"properties":{"OBJECTID":117,"SOURCE":"PWS - Drinking Water","NAME":"ADMINISTRATIVE SERVICE CENTER - REGION 1","TYPE":"NONTRANSIENT NONCOMMUNITY","FACILITYID":"1320444","STATUS":"Unknown","ADDRESS":"2980 STATE CORRECTIONAL ROAD\nMARIANNA, FL 32448"}},{"type":"Feature","geometry":{"type":"Point","coordinates":[-85.21969,30.770784]},"properties":{"OBJECTID":118,"SOURCE":"PWS - Drinking Water","NAME":"MARIANNA, CITY OF","TYPE":"COMMUNITY","FACILITYID":"1320449","STATUS":"Unknown","ADDRESS":"2832 DAVEY STREET\nMARIANNA, FL 32447"}},{"type":"Feature","geometry":{"type":"Point","coordinates":[-84.935872,30.739011]},"properties":{"OBJECTID":119,"SOURCE":"PWS - Drinking Water","NAME":"THREE RIVERS ST PK HOUSE WELL","TYPE":"NONCOMMUNITY","FACILITYID":"1320675","STATUS":"Unknown","ADDRESS":"7908 THREE RIVERS PARK ROAD\nSNEADS, FL 32460"}},{"type":"Feature","geometry":{"type":"Point","coordinates":[-85.02015,30.714625]},"properties":{"OBJECTID":120,"SOURCE":"PWS - Drinking Water","NAME":"GRAND RIDGE, TOWN OF","TYPE":"COMMUNITY","FACILITYID":"1320686","STATUS":"Unknown","ADDRESS":"2086 PORTER AVE.\nGRAND RIDGE, FL 32442"}},{"type":"Feature","geometry":{"type":"Point","coordinates":[-84.930369,30.713338]},"properties":{"OBJECTID":121,"SOURCE":"PWS - Drinking Water","NAME":"SNEADS, TOWN OF WATER SYSTEM","TYPE":"COMMUNITY","FACILITYID":"1320689","STATUS":"Unknown","ADDRESS":"790 DAVIS STREET\nSNEADS, FL 32460"}},{"type":"Feature","geometry":{"type":"Point","coordinates":[-85.199411,30.76638]},"properties":{"OBJECTID":122,"SOURCE":"PWS - Drinking Water","NAME":"QUIET HAVEN TRAILER PARK","TYPE":"COMMUNITY","FACILITYID":"1320879","STATUS":"Unknown","ADDRESS":"4757 GRAND OAKS CIRCLE\nMARIANNA, FL 32446"}},{"type":"Feature","geometry":{"type":"Point","coordinates":[-85.087571,30.709317]},"properties":{"OBJECTID":123,"SOURCE":"PWS - Drinking Water","NAME":"SPANISH TRAIL LUMBER","TYPE":"NONTRANSIENT NONCOMMUNITY","FACILITYID":"1324027","STATUS":"Unknown","ADDRESS":"6112 OLD SPANISH TRAIL\nMARIANNA, FL 32448"}},{"type":"Feature","geometry":{"type":"Point","coordinates":[-85.408816,30.891275]},"properties":{"OBJECTID":124,"SOURCE":"PWS - Drinking Water","NAME":"JACOB, CITY OF","TYPE":"COMMUNITY","FACILITYID":"1324031","STATUS":"Unknown","ADDRESS":"4490 JACKSON ROAD\nJACOB, FL 32431"}},{"type":"Feature","geometry":{"type":"Point","coordinates":[-85.543274,30.633126]},"properties":{"OBJECTID":125,"SOURCE":"PWS - Drinking Water","NAME":"JACKSON CO. I-10 REST AREA","TYPE":"NONCOMMUNITY","FACILITYID":"1324032","STATUS":"Temp Hurricane Closure","ADDRESS":"C/O D.O.T. P.O. BOX 607\nCHIPLEY, FL 32428"}},{"type":"Feature","geometry":{"type":"Point","coordinates":[-85.230222,30.736053]},"properties":{"OBJECTID":126,"SOURCE":"PWS - Drinking Water","NAME":"ALONG THE WAY DAYCARE","TYPE":"NONTRANSIENT NONCOMMUNITY","FACILITYID":"1324046","STATUS":"Unknown","ADDRESS":"2351 HWY 73 SOUTH\nMARIANNA, FL 32446"}},{"type":"Feature","geometry":{"type":"Point","coordinates":[-85.182187,30.74728]},"properties":{"OBJECTID":127,"SOURCE":"PWS - Drinking Water","NAME":"CHIPOLA FITNESS CENTER EAST","TYPE":"NONCOMMUNITY","FACILITYID":"1324060","STATUS":"Unknown","ADDRESS":"4966 EAST HIGHWAY 90\nMARIANNA, FL 32446"}},{"type":"Feature","geometry":{"type":"Point","coordinates":[-85.392653,30.591366]},"properties":{"OBJECTID":128,"SOURCE":"PWS - Drinking Water","NAME":"SKI INN","TYPE":"NONCOMMUNITY","FACILITYID":"1324061","STATUS":"Temp Hurricane Closure","ADDRESS":"350 LAKE POINT ROAD\nALFORD, FL 32420"}},{"type":"Feature","geometry":{"type":"Point","coordinates":[-85.292838,30.784451]},"properties":{"OBJECTID":129,"SOURCE":"PWS - Drinking Water","NAME":"MARIANNA NATIONAL GUARD","TYPE":"NONCOMMUNITY","FACILITYID":"1324063","STATUS":"Unknown","ADDRESS":"3645 HIGHWAY 90\nMARIANNA, FL 32447"}},{"type":"Feature","geometry":{"type":"Point","coordinates":[-85.165544,30.789976]},"properties":{"OBJECTID":130,"SOURCE":"PWS - Drinking Water","NAME":"BLUE SPRINGS MHP (AKA SPRINGSIDE)","TYPE":"COMMUNITY","FACILITYID":"1324064","STATUS":"Unknown","ADDRESS":"5161 BLUE SPRINGS ROAD\nMARIANNA, FL 32446"}},{"type":"Feature","geometry":{"type":"Point","coordinates":[-85.16324,30.969547]},"properties":{"OBJECTID":131,"SOURCE":"PWS - Drinking Water","NAME":"JACKSON CORRECTIONAL INSTITUTION","TYPE":"COMMUNITY","FACILITYID":"1324074","STATUS":"Unknown","ADDRESS":"5563 TENTH ST\nMALONE, FL 32445"}},{"type":"Feature","geometry":{"type":"Point","coordinates":[-85.079206,30.722562]},"properties":{"OBJECTID":132,"SOURCE":"PWS - Drinking Water","NAME":"DARBEE'S KWIK STOP","TYPE":"NONCOMMUNITY","FACILITYID":"1324078","STATUS":"Temp Hurricane Closure","ADDRESS":"6189 HWY 90\nMARIANNA, FL 32448"}},{"type":"Feature","geometry":{"type":"Point","coordinates":[-85.158244,30.767917]},"properties":{"OBJECTID":133,"SOURCE":"PWS - Drinking Water","NAME":"INDIAN SPRINGS GOLF COURSE","TYPE":"NONCOMMUNITY","FACILITYID":"1324080","STATUS":"Unknown","ADDRESS":"5248 CLUBHOUSE DRIVE\nMARIANNA, FL 32446"}},{"type":"Feature","geometry":{"type":"Point","coordinates":[-84.935872,30.739011]},"properties":{"OBJECTID":134,"SOURCE":"PWS - Drinking Water","NAME":"THREE RIVERS ST PK WEST WELL","TYPE":"NONCOMMUNITY","FACILITYID":"1324082","STATUS":"Unknown","ADDRESS":"7908 THREE RIVERS PARK RD.\nSNEADS, FL 32460"}},{"type":"Feature","geometry":{"type":"Point","coordinates":[-85.197261,30.965253]},"properties":{"OBJECTID":135,"SOURCE":"PWS - Drinking Water","NAME":"BASCOM GENERAL MERCHANDISE","TYPE":"NONCOMMUNITY","FACILITYID":"1324087","STATUS":"Unknown","ADDRESS":"P. O. BOX 3994999 BASSWOOD ROAD\n\nMALONE, FL 32445"}},{"type":"Feature","geometry":{"type":"Point","coordinates":[-85.078929,30.71791]},"properties":{"OBJECTID":136,"SOURCE":"PWS - Drinking Water","NAME":"TIPPY TOES DAYCARE (DEE'S EARTH ANGELS)","TYPE":"NONTRANSIENT NONCOMMUNITY","FACILITYID":"1324092","STATUS":"Unknown","ADDRESS":"2116 CHURCH ROAD\nCYPRESS, FL 32432"}},{"type":"Feature","geometry":{"type":"Point","coordinates":[-85.22269,30.87094]},"properties":{"OBJECTID":137,"SOURCE":"PWS - Drinking Water","NAME":"CLOVER LEAF GIN, INC.","TYPE":"NONCOMMUNITY","FACILITYID":"1324094","STATUS":"Unknown","ADDRESS":"4455 HWY 162\nMARIANNA, FL 32446"}},{"type":"Feature","geometry":{"type":"Point","coordinates":[-85.225628,30.773196]},"properties":{"OBJECTID":138,"SOURCE":"PWS - Drinking Water","NAME":"JACKSON COUNTY UTILITIES NO. 1","TYPE":"COMMUNITY","FACILITYID":"1324098","STATUS":"Unknown","ADDRESS":"2864 MADISON STREET\nMARIANNA, FL 32448"}},{"type":"Feature","geometry":{"type":"Point","coordinates":[-85.164139,30.660707]},"properties":{"OBJECTID":139,"SOURCE":"PWS - Drinking Water","NAME":"DOLOMITE INCORPORATED","TYPE":"NONCOMMUNITY","FACILITYID":"1324100","STATUS":"Unknown","ADDRESS":"1321 HWY 71\nMARIANNA, FL 32448"}},{"type":"Feature","geometry":{"type":"Point","coordinates":[-85.426005,30.925555]},"properties":{"OBJECTID":140,"SOURCE":"PWS - Drinking Water","NAME":"SPRINGHILL REGIONAL LANDFILL","TYPE":"NONTRANSIENT NONCOMMUNITY","FACILITYID":"1324101","STATUS":"Unknown","ADDRESS":"4945 HWY 273\nCAMPBELLTON, FL 32426"}},{"type":"Feature","geometry":{"type":"Point","coordinates":[-85.384175,30.609682]},"properties":{"OBJECTID":141,"SOURCE":"PWS - Drinking Water","NAME":"COMPASS LAKE IN THE HILLS","TYPE":"NONCOMMUNITY","FACILITYID":"1324104","STATUS":"Unknown","ADDRESS":"645 COMPASS LAKE DRIVE\nALFORD, FL 32420"}},{"type":"Feature","geometry":{"type":"Point","coordinates":[-85.399431,30.638223]},"properties":{"OBJECTID":142,"SOURCE":"PWS - Drinking Water","NAME":"KOUNTRY CANDY STORE","TYPE":"NONCOMMUNITY","FACILITYID":"1324106","STATUS":"Temp Hurricane Closure","ADDRESS":"996 HWY 231 S\nALFORD, FL 32420"}},{"type":"Feature","geometry":{"type":"Point","coordinates":[-85.140425,30.792127]},"properties":{"OBJECTID":143,"SOURCE":"PWS - Drinking Water","NAME":"BLUE SPRINGS RECREATIONAL AREA","TYPE":"NONCOMMUNITY","FACILITYID":"1324108","STATUS":"Unknown","ADDRESS":"5461 HIGHWAY 164\nMARIANNA, FL 32446"}},{"type":"Feature","geometry":{"type":"Point","coordinates":[-85.364635,30.763057]},"properties":{"OBJECTID":144,"SOURCE":"PWS - Drinking Water","NAME":"JACKSON COUNTY UTILITIES NO. 2","TYPE":"NONTRANSIENT NONCOMMUNITY","FACILITYID":"1324199","STATUS":"Unknown","ADDRESS":"2727 CARTLEDGE ROAD\nCOTTONDALE, FL 32431"}},{"type":"Feature","geometry":{"type":"Point","coordinates":[-84.024605,30.48565]},"properties":{"OBJECTID":145,"SOURCE":"PWS - Drinking Water","NAME":"CAPITAL CITY TRAVEL CENTER","TYPE":"NONTRANSIENT NONCOMMUNITY","FACILITYID":"1330070","STATUS":"Unknown","ADDRESS":"2716 GAMBLE ROAD\nMONTICELLO, FL 32344"}},{"type":"Feature","geometry":{"type":"Point","coordinates":[-83.869817,30.571551]},"properties":{"OBJECTID":146,"SOURCE":"PWS - Drinking Water","NAME":"CROSS LANDINGS HEALTH & REHAB CENTER","TYPE":"COMMUNITY","FACILITYID":"1330374","STATUS":"Unknown","ADDRESS":"(AKA JEFFERSON NURSING CENTER)1780 N JEFFERSON ST\n\nMONTICELLO, FL 32344"}},{"type":"Feature","geometry":{"type":"Point","coordinates":[-83.87101,30.544181]},"properties":{"OBJECTID":147,"SOURCE":"PWS - Drinking Water","NAME":"MONTICELLO, CITY OF","TYPE":"COMMUNITY","FACILITYID":"1330478","STATUS":"Unknown","ADDRESS":"245 SOUTH MULBERRY STREET\nMONTICELLO, FL 32344"}},{"type":"Feature","geometry":{"type":"Point","coordinates":[-83.920788,30.477167]},"properties":{"OBJECTID":148,"SOURCE":"PWS - Drinking Water","NAME":"TALLAHASSEE EAST CAMPGROUND (AKA KOA)","TYPE":"NONCOMMUNITY","FACILITYID":"1330654","STATUS":"Unknown","ADDRESS":"346 KOA ROAD\nMONTICELLO, FL 32344"}},{"type":"Feature","geometry":{"type":"Point","coordinates":[-83.884271,30.58001]},"properties":{"OBJECTID":149,"SOURCE":"PWS - Drinking Water","NAME":"JEFFERSON COMMUNITIES WATER SYSTEM","TYPE":"COMMUNITY","FACILITYID":"1330748","STATUS":"Unknown","ADDRESS":"1512 WEKEWA NENE\nLLOYD, FL 32344"}},{"type":"Feature","geometry":{"type":"Point","coordinates":[-83.894442,30.478213]},"properties":{"OBJECTID":150,"SOURCE":"PWS - Drinking Water","NAME":"A CAMPERS WORLD RV PARK","TYPE":"NONCOMMUNITY","FACILITYID":"1330752","STATUS":"Unknown","ADDRESS":"397 CAMPGROUND ROAD\nLAMONT, FL 32336"}},{"type":"Feature","geometry":{"type":"Point","coordinates":[-84.267201,30.383857]},"properties":{"OBJECTID":151,"SOURCE":"PWS - Drinking Water","NAME":"ANNAWOOD SUBDIVISION","TYPE":"COMMUNITY","FACILITYID":"1370023","STATUS":"Unknown","ADDRESS":"799 ANNAWOOD DR\nTALLAHASSEE, FL 32314"}},{"type":"Feature","geometry":{"type":"Point","coordinates":[-84.49564,30.427054]},"properties":{"OBJECTID":152,"SOURCE":"PWS - Drinking Water","NAME":"BLOUNT'S LANDING WATER SYSTEM","TYPE":"COMMUNITY","FACILITYID":"1370077","STATUS":"Unknown","ADDRESS":"LANIER STREETLAKE TALQUIN WATER COMPANY, INC.\n\nTALLAHASSEE, FL 32310"}},{"type":"Feature","geometry":{"type":"Point","coordinates":[-84.376931,30.436146]},"properties":{"OBJECTID":153,"SOURCE":"PWS - Drinking Water","NAME":"BURGESS CIRCLE SUBDIVISION","TYPE":"COMMUNITY","FACILITYID":"1370096","STATUS":"Unknown","ADDRESS":"5966 BLOUNTSTOWN HIGHWAY\nTALLAHASSEE, FL 32314"}},{"type":"Feature","geometry":{"type":"Point","coordinates":[-84.534951,30.426385]},"properties":{"OBJECTID":154,"SOURCE":"PWS - Drinking Water","NAME":"FORT BRADEN COMMUNITY CENTER","TYPE":"NONCOMMUNITY","FACILITYID":"1370282","STATUS":"Unknown","ADDRESS":"16387 BLOUNTSTOWN HIGHWAY\nTALLAHASSEE, FL 32310"}},{"type":"Feature","geometry":{"type":"Point","coordinates":[-84.264147,30.387888]},"properties":{"OBJECTID":155,"SOURCE":"PWS - Drinking Water","NAME":"TWIN LAKES MOBILE HOME PARK","TYPE":"COMMUNITY","FACILITYID":"1370288","STATUS":"Unknown","ADDRESS":"557 SISTRUNK CIRCLE\nTALLAHASSEE, FL 32305"}},{"type":"Feature","geometry":{"type":"Point","coordinates":[-84.597887,30.585666]},"properties":{"OBJECTID":156,"SOURCE":"PWS - Drinking Water","NAME":"LEON CO. REGIONAL SYSTEM EAST","TYPE":"COMMUNITY","FACILITYID":"1370353","STATUS":"Unknown","ADDRESS":"1640 WEST JEFFERSON ST\nQUINCY, FL 32353"}},{"type":"Feature","geometry":{"type":"Point","coordinates":[-84.650252,30.517785]},"properties":{"OBJECTID":157,"SOURCE":"PWS - Drinking Water","NAME":"BRADFORDVILLE REGIONAL W/S","TYPE":"COMMUNITY","FACILITYID":"1370393","STATUS":"Unknown","ADDRESS":"P.O.BOX 1679\nQUINCY, FL 32351"}},{"type":"Feature","geometry":{"type":"Point","coordinates":[-84.635497,30.392393]},"properties":{"OBJECTID":158,"SOURCE":"PWS - Drinking Water","NAME":"LAKE TALQUIN WATER COMPANY","TYPE":"COMMUNITY","FACILITYID":"1370403","STATUS":"Unknown","ADDRESS":"24396 LONESTAR COURTLAKE TALQUIN WATER COMPANY\n\nTALLAHASSEE, FL 32310"}},{"type":"Feature","geometry":{"type":"Point","coordinates":[-84.365651,30.447448]},"properties":{"OBJECTID":159,"SOURCE":"PWS - Drinking Water","NAME":"EAGLE'S NEST MHP","TYPE":"COMMUNITY","FACILITYID":"1370419","STATUS":"Unknown","ADDRESS":"5301 GUM ROAD\nTALLAHASSEE, FL 32304"}},{"type":"Feature","geometry":{"type":"Point","coordinates":[-84.362368,30.229424]},"properties":{"OBJECTID":160,"SOURCE":"PWS - Drinking Water","NAME":"LOST LAKE RECREATION AREA","TYPE":"NONCOMMUNITY","FACILITYID":"1370434","STATUS":"Unknown","ADDRESS":"1773 CRAWFORDVILLE HIGHWAY\nCRAWFORDVILLE, FL 32327"}},{"type":"Feature","geometry":{"type":"Point","coordinates":[-84.338025,30.451425]},"properties":{"OBJECTID":161,"SOURCE":"PWS - Drinking Water","NAME":"MEADOW HILLS S/D WATER SYSTEM","TYPE":"COMMUNITY","FACILITYID":"1370461","STATUS":"Fully Operational","ADDRESS":"P.O.BOX 1389\nTALLAHASSEE, FL 32304"}},{"type":"Feature","geometry":{"type":"Point","coordinates":[-84.275658,30.657672]},"properties":{"OBJECTID":162,"SOURCE":"PWS - Drinking Water","NAME":"MERIDIAN HILLS WATER SYSTEM","TYPE":"COMMUNITY","FACILITYID":"1370463","STATUS":"Unknown","ADDRESS":"482 BEAVER LAKE ROAD\nTALLAHASSEE, FL 32314"}},{"type":"Feature","geometry":{"type":"Point","coordinates":[-84.2834,30.441845]},"properties":{"OBJECTID":163,"SOURCE":"PWS - Drinking Water","NAME":"SEDGEFIELD SUBDIVISION","TYPE":"COMMUNITY","FACILITYID":"1370598","STATUS":"Fully Operational","ADDRESS":"P.O.BOX 1389\nTALLAHASSEE, FL 32302"}},{"type":"Feature","geometry":{"type":"Point","coordinates":[-84.40848,30.40389]},"properties":{"OBJECTID":164,"SOURCE":"PWS - Drinking Water","NAME":"SILVER LAKE RECREATION AREA","TYPE":"NONCOMMUNITY","FACILITYID":"1370607","STATUS":"Unknown","ADDRESS":"4233 SILVER LAKE ROAD\nTALLAHASSEE, FL 32310"}},{"type":"Feature","geometry":{"type":"Point","coordinates":[-84.3726,30.456791]},"properties":{"OBJECTID":165,"SOURCE":"PWS - Drinking Water","NAME":"GRAND VILLAGE MHP WEST","TYPE":"COMMUNITY","FACILITYID":"1370616","STATUS":"Unknown","ADDRESS":"307 MARCUS CT.\nTALLAHASSEE, FL 32304"}},{"type":"Feature","geometry":{"type":"Point","coordinates":[-84.597887,30.585666]},"properties":{"OBJECTID":166,"SOURCE":"PWS - Drinking Water","NAME":"LEON CO. REGIONAL SYSTEM SOUTH","TYPE":"COMMUNITY","FACILITYID":"1370617","STATUS":"Unknown","ADDRESS":"1640 WEST JEFFERSON STREET\nQUINCY, FL 32351"}},{"type":"Feature","geometry":{"type":"Point","coordinates":[-84.226912,30.497337]},"properties":{"OBJECTID":167,"SOURCE":"PWS - Drinking Water","NAME":"STONEGATE SUBDIVISION","TYPE":"COMMUNITY","FACILITYID":"1370640","STATUS":"Unknown","ADDRESS":"3001 WINDY HILL LANE\nTALLAHASSEE, FL 32314"}},{"type":"Feature","geometry":{"type":"Point","coordinates":[-84.322989,30.392919]},"properties":{"OBJECTID":168,"SOURCE":"PWS - Drinking Water","NAME":"TALLAHASSEE, CITY OF","TYPE":"COMMUNITY","FACILITYID":"1370655","STATUS":"Unknown","ADDRESS":"4505-A SPRINGHILL ROAD\nTALLAHASSEE, FL 32305"}},{"type":"Feature","geometry":{"type":"Point","coordinates":[-84.650252,30.517785]},"properties":{"OBJECTID":169,"SOURCE":"PWS - Drinking Water","NAME":"MEADOWS-AT-WOODRUN","TYPE":"COMMUNITY","FACILITYID":"1370669","STATUS":"Unknown","ADDRESS":"P. O. BOX 1679\nQUINCY, FL 32351"}},{"type":"Feature","geometry":{"type":"Point","coordinates":[-84.338025,30.451425]},"properties":{"OBJECTID":170,"SOURCE":"PWS - Drinking Water","NAME":"TROUT POND","TYPE":"NONCOMMUNITY","FACILITYID":"1370696","STATUS":"Unknown","ADDRESS":"1773 CRAWFORDVILLE HIGHWAY\nTALLAHASSEE, FL 32304"}},{"type":"Feature","geometry":{"type":"Point","coordinates":[-84.650252,30.517785]},"properties":{"OBJECTID":171,"SOURCE":"PWS - Drinking Water","NAME":"LEON CO. REGIONAL SYSTEM WEST","TYPE":"COMMUNITY","FACILITYID":"1370745","STATUS":"Unknown","ADDRESS":"P.O. BOX 1679\nQUINCY, FL 32351"}},{"type":"Feature","geometry":{"type":"Point","coordinates":[-84.326126,30.405978]},"properties":{"OBJECTID":172,"SOURCE":"PWS - Drinking Water","NAME":"LAKE BRADFORD ESTATES MHP","TYPE":"COMMUNITY","FACILITYID":"1370791","STATUS":"Unknown","ADDRESS":"2775 CATHEDRAL DRIVE\nTALLAHASSEE, FL 32310"}},{"type":"Feature","geometry":{"type":"Point","coordinates":[-84.650252,30.517785]},"properties":{"OBJECTID":173,"SOURCE":"PWS - Drinking Water","NAME":"LAKE JACKSON AREA WATER SYSTEM","TYPE":"COMMUNITY","FACILITYID":"1370888","STATUS":"Unknown","ADDRESS":"P. O. BOX 1679\nQUINCY, FL 32351"}},{"type":"Feature","geometry":{"type":"Point","coordinates":[-84.2834,30.441845]},"properties":{"OBJECTID":174,"SOURCE":"PWS - Drinking Water","NAME":"BREWSTER SUBDIVISION","TYPE":"COMMUNITY","FACILITYID":"1370898","STATUS":"Fully Operational","ADDRESS":"P. O. BOX 1363\nTALLAHASSEE, FL 32302"}},{"type":"Feature","geometry":{"type":"Point","coordinates":[-84.313879,30.501935]},"properties":{"OBJECTID":175,"SOURCE":"PWS - Drinking Water","NAME":"LAKE TALQUIN STATE PARK (RIVER BLUFF)","TYPE":"NONCOMMUNITY","FACILITYID":"1370913","STATUS":"Unknown","ADDRESS":"3600 INDIAN MOUNDS RD.\nTALLAHASSEE, FL 32303"}},{"type":"Feature","geometry":{"type":"Point","coordinates":[-84.2834,30.441845]},"properties":{"OBJECTID":176,"SOURCE":"PWS - Drinking Water","NAME":"BUCK LAKE ESTATES","TYPE":"COMMUNITY","FACILITYID":"1374008","STATUS":"Fully Operational","ADDRESS":"P O BOX 1389\nTALLAHASSEE, FL 32302"}},{"type":"Feature","geometry":{"type":"Point","coordinates":[-84.520925,30.448513]},"properties":{"OBJECTID":177,"SOURCE":"PWS - Drinking Water","NAME":"WILLIAMS LANDING","TYPE":"NONCOMMUNITY","FACILITYID":"1374041","STATUS":"Unknown","ADDRESS":"951 WILLIAMS LANDING ROAD\nTALLAHASSEE, FL 32310"}},{"type":"Feature","geometry":{"type":"Point","coordinates":[-84.481777,30.454056]},"properties":{"OBJECTID":178,"SOURCE":"PWS - Drinking Water","NAME":"COE'S LANDING PARK","TYPE":"NONCOMMUNITY","FACILITYID":"1374042","STATUS":"Unknown","ADDRESS":"1208 COES LANDING\nTALLAHASSEE, FL 32308"}},{"type":"Feature","geometry":{"type":"Point","coordinates":[-84.333465,30.49997]},"properties":{"OBJECTID":179,"SOURCE":"PWS - Drinking Water","NAME":"NORTH LAKE MEADOW WATER SYSTEM","TYPE":"COMMUNITY","FACILITYID":"1374049","STATUS":"Fully Operational","ADDRESS":"P.O. BOX 1389\nTALLAHASSEE, FL 32303"}},{"type":"Feature","geometry":{"type":"Point","coordinates":[-84.170183,30.482163]},"properties":{"OBJECTID":180,"SOURCE":"PWS - Drinking Water","NAME":"TALLAHASSEE RV PARK","TYPE":"NONCOMMUNITY","FACILITYID":"1374053","STATUS":"Unknown","ADDRESS":"6504 MAHAN DRIVE\nTALLAHASSEE, FL 32308"}},{"type":"Feature","geometry":{"type":"Point","coordinates":[-84.2834,30.441845]},"properties":{"OBJECTID":181,"SOURCE":"PWS - Drinking Water","NAME":"PLANTATION ESTATES","TYPE":"COMMUNITY","FACILITYID":"1374054","STATUS":"Fully Operational","ADDRESS":"P.O. BOX 1389\nTALLAHASSEE, FL 32302"}},{"type":"Feature","geometry":{"type":"Point","coordinates":[-84.566835,30.42495]},"properties":{"OBJECTID":182,"SOURCE":"PWS - Drinking Water","NAME":"HALL'S LANDING","TYPE":"NONCOMMUNITY","FACILITYID":"1374056","STATUS":"Unknown","ADDRESS":"2997 LUTHER HALL ROAD\nTALLAHASSEE, FL 32310"}},{"type":"Feature","geometry":{"type":"Point","coordinates":[-84.189576,30.414899]},"properties":{"OBJECTID":183,"SOURCE":"PWS - Drinking Water","NAME":"GRASSROOTS FREE SCHOOL INC.","TYPE":"NONTRANSIENT NONCOMMUNITY","FACILITYID":"1374061","STATUS":"Unknown","ADDRESS":"2458 GRASSROOTS WAY\nTALLAHASSEE, FL 32301"}},{"type":"Feature","geometry":{"type":"Point","coordinates":[-84.406234,30.472718]},"properties":{"OBJECTID":184,"SOURCE":"PWS - Drinking Water","NAME":"WARRIOR ON THE RIVERFRONT","TYPE":"NONCOMMUNITY","FACILITYID":"1374066","STATUS":"Unknown","ADDRESS":"9330 WEST TENNESSEE STREET\nTALLAHASSEE, FL 32304"}},{"type":"Feature","geometry":{"type":"Point","coordinates":[-84.533211,30.426669]},"properties":{"OBJECTID":185,"SOURCE":"PWS - Drinking Water","NAME":"DOGWOOD MHP","TYPE":"COMMUNITY","FACILITYID":"1374072","STATUS":"Unknown","ADDRESS":"16327 BLOUNTSTOWN HIGHWAY\nTALLAHASSEE, FL 32317"}},{"type":"Feature","geometry":{"type":"Point","coordinates":[-84.619148,30.392793]},"properties":{"OBJECTID":186,"SOURCE":"PWS - Drinking Water","NAME":"LAKE TALQUIN STORE","TYPE":"NONCOMMUNITY","FACILITYID":"1374076","STATUS":"Unknown","ADDRESS":"22400 BLOUNTSTOWN HWY\nTALLAHASSEE, FL 32310"}},{"type":"Feature","geometry":{"type":"Point","coordinates":[-84.514221,30.437062]},"properties":{"OBJECTID":187,"SOURCE":"PWS - Drinking Water","NAME":"FORT BRADEN SCHOOL","TYPE":"NONTRANSIENT NONCOMMUNITY","FACILITYID":"1374079","STATUS":"Unknown","ADDRESS":"15100 BLOUNTSTOWN HIGHWAY\nTALLAHASSEE, FL 32304"}},{"type":"Feature","geometry":{"type":"Point","coordinates":[-84.605039,30.397114]},"properties":{"OBJECTID":188,"SOURCE":"PWS - Drinking Water","NAME":"LAKE TALQUIN BAPTIST CHURCH","TYPE":"NONCOMMUNITY","FACILITYID":"1374080","STATUS":"Unknown","ADDRESS":"21335 BLOUNTSTOWN HIGHWAY\nTALLAHASSEE, FL 32310"}},{"type":"Feature","geometry":{"type":"Point","coordinates":[-84.027181,30.523058]},"properties":{"OBJECTID":189,"SOURCE":"PWS - Drinking Water","NAME":"HILLTOP GROCERY","TYPE":"NONCOMMUNITY","FACILITYID":"1374085","STATUS":"Unknown","ADDRESS":"14807 MAHAN DR.\nTALLAHASSEE, FL 32309"}},{"type":"Feature","geometry":{"type":"Point","coordinates":[-84.978728,30.346701]},"properties":{"OBJECTID":190,"SOURCE":"PWS - Drinking Water","NAME":"BRISTOL, CITY OF WATER SYSTEM","TYPE":"COMMUNITY","FACILITYID":"1390087","STATUS":"Unknown","ADDRESS":"P.O. BOX 207\nBRISTOL, FL 32321"}},{"type":"Feature","geometry":{"type":"Point","coordinates":[-84.593516,30.57792]},"properties":{"OBJECTID":191,"SOURCE":"PWS - Drinking Water","NAME":"SWEETWATER WATER SYSTEM","TYPE":"COMMUNITY","FACILITYID":"1390651","STATUS":"Unknown","ADDRESS":"8160 NORTHWEST MARTIN LUTHER KING BLVD\nQUINCY, FL 32353"}},{"type":"Feature","geometry":{"type":"Point","coordinates":[-84.978728,30.346701]},"properties":{"OBJECTID":192,"SOURCE":"PWS - Drinking Water","NAME":"HOSFORD, TOWN OF WATER SYSTEM","TYPE":"COMMUNITY","FACILITYID":"1390901","STATUS":"Unknown","ADDRESS":"P.O. BOX 399\nBRISTOL, FL 32321"}},{"type":"Feature","geometry":{"type":"Point","coordinates":[-84.866249,30.464532]},"properties":{"OBJECTID":193,"SOURCE":"PWS - Drinking Water","NAME":"LIBERTY CORRECTIONAL INSTITUTION","TYPE":"COMMUNITY","FACILITYID":"1394001","STATUS":"Unknown","ADDRESS":"11064 NW DEMPSEY BARRON HIGHWAY\nBRISTOL, FL 32321"}},{"type":"Feature","geometry":{"type":"Point","coordinates":[-84.684028,30.388264]},"properties":{"OBJECTID":194,"SOURCE":"PWS - Drinking Water","NAME":"CROW'S CORNER","TYPE":"NONCOMMUNITY","FACILITYID":"1394002","STATUS":"Unknown","ADDRESS":"29102 NE SR 20\nHOSFORD, FL 32334"}},{"type":"Feature","geometry":{"type":"Point","coordinates":[-84.978728,30.346701]},"properties":{"OBJECTID":195,"SOURCE":"PWS - Drinking Water","NAME":"SUMATRA WATER SYSTEM","TYPE":"COMMUNITY","FACILITYID":"1394003","STATUS":"Unknown","ADDRESS":"P.O. BOX 399\nBRISTOL, FL 32321"}},{"type":"Feature","geometry":{"type":"Point","coordinates":[-84.986921,30.345811]},"properties":{"OBJECTID":196,"SOURCE":"PWS - Drinking Water","NAME":"APALACHEE POLE COMPANY","TYPE":"NONTRANSIENT NONCOMMUNITY","FACILITYID":"1394005","STATUS":"Unknown","ADDRESS":"18601 NW COUNTY RD 12PO BOX 610\n\nBRISTOL, FL 32321"}},{"type":"Feature","geometry":{"type":"Point","coordinates":[-84.978728,30.346701]},"properties":{"OBJECTID":197,"SOURCE":"PWS - Drinking Water","NAME":"ESTIFFANULGA WATER SYSTEM","TYPE":"COMMUNITY","FACILITYID":"1394006","STATUS":"Unknown","ADDRESS":"P. O. BOX 399\nBRISTOL, FL 32321"}},{"type":"Feature","geometry":{"type":"Point","coordinates":[-84.986921,30.345811]},"properties":{"OBJECTID":198,"SOURCE":"PWS - Drinking Water","NAME":"REX LUMBER, BRISTOL, LLC","TYPE":"NONTRANSIENT NONCOMMUNITY","FACILITYID":"1394007","STATUS":"Unknown","ADDRESS":"18601 NW COUNTY ROAD 12POST OFFICE BOX 610\n\nBRISTOL, FL 32321"}},{"type":"Feature","geometry":{"type":"Point","coordinates":[-84.978728,30.346701]},"properties":{"OBJECTID":199,"SOURCE":"PWS - Drinking Water","NAME":"LAKE MYSTIC WATER SYSTEM","TYPE":"COMMUNITY","FACILITYID":"1394009","STATUS":"Unknown","ADDRESS":"POST OFFICE BOX 399\nBRISTOL, FL 32321"}},{"type":"Feature","geometry":{"type":"Point","coordinates":[-86.533881,30.834029]},"properties":{"OBJECTID":200,"SOURCE":"PWS - Drinking Water","NAME":"AUBURN WATER SYSTEM","TYPE":"COMMUNITY","FACILITYID":"1460035","STATUS":"Unknown","ADDRESS":"3097 LOCKE LANE\nCRESTVIEW, FL 32536"}},{"type":"Feature","geometry":{"type":"Point","coordinates":[-86.679242,30.797585]},"properties":{"OBJECTID":201,"SOURCE":"PWS - Drinking Water","NAME":"BAKER WATER SYSTEM, INC.","TYPE":"COMMUNITY","FACILITYID":"1460043","STATUS":"Unknown","ADDRESS":"5783 MONROE STREET\nBAKER, FL 32531"}},{"type":"Feature","geometry":{"type":"Point","coordinates":[-86.626021,30.412824]},"properties":{"OBJECTID":202,"SOURCE":"PWS - Drinking Water","NAME":"FORT WALTON BEACH, CITY OF","TYPE":"COMMUNITY","FACILITYID":"1460144","STATUS":"Unknown","ADDRESS":"203 HOLLYWOOD BLVD NW\nFORT WALTON BEACH, FL 32549"}},{"type":"Feature","geometry":{"type":"Point","coordinates":[-86.47646,30.522784]},"properties":{"OBJECTID":203,"SOURCE":"PWS - Drinking Water","NAME":"NICEVILLE, CITY OF","TYPE":"COMMUNITY","FACILITYID":"1460147","STATUS":"Unknown","ADDRESS":"208 N. PARTIN DRIVE\nNICEVILLE, FL 32578"}},{"type":"Feature","geometry":{"type":"Point","coordinates":[-86.508453,30.510758]},"properties":{"OBJECTID":204,"SOURCE":"PWS - Drinking Water","NAME":"VALPARAISO, CITY OF","TYPE":"COMMUNITY","FACILITYID":"1460149","STATUS":"Unknown","ADDRESS":"600 VALASTICS AVENUE\nVALPARAISO, FL 32580"}},{"type":"Feature","geometry":{"type":"Point","coordinates":[-86.566233,30.770286]},"properties":{"OBJECTID":205,"SOURCE":"PWS - Drinking Water","NAME":"CRESTVIEW, CITY OF WATER DEPT.","TYPE":"COMMUNITY","FACILITYID":"1460182","STATUS":"Unknown","ADDRESS":"715 N. FERDON BLVD\nCRESTVIEW, FL 32536"}},{"type":"Feature","geometry":{"type":"Point","coordinates":[-86.483447,30.394222]},"properties":{"OBJECTID":206,"SOURCE":"PWS - Drinking Water","NAME":"DESTIN WATER USERS, INC.","TYPE":"COMMUNITY","FACILITYID":"1460202","STATUS":"Unknown","ADDRESS":"218 MAIN STREET\nDESTIN, FL 32541"}},{"type":"Feature","geometry":{"type":"Point","coordinates":[-86.750793,30.713547]},"properties":{"OBJECTID":207,"SOURCE":"PWS - Drinking Water","NAME":"HOLT WATER WORKS, INC.","TYPE":"COMMUNITY","FACILITYID":"1460352","STATUS":"Unknown","ADDRESS":"490 US HWY 90 // P.O.BOX 308\nHOLT, FL 32564"}},{"type":"Feature","geometry":{"type":"Point","coordinates":[-86.874968,30.854941]},"properties":{"OBJECTID":208,"SOURCE":"PWS - Drinking Water","NAME":"HURRICANE LAKE NORTH REC AREA","TYPE":"NONCOMMUNITY","FACILITYID":"1460364","STATUS":"Unknown","ADDRESS":"11650 MUNSON HWY\nMILTON, FL 32570"}},{"type":"Feature","geometry":{"type":"Point","coordinates":[-74.79822,40.2565]},"properties":{"OBJECTID":209,"SOURCE":"PWS - Drinking Water","NAME":"OKALOOSA CO REST AREA","TYPE":"NONCOMMUNITY","FACILITYID":"1460366","STATUS":"Unknown","ADDRESS":"C/O FL DEPT. OF TRANSPORTATIONPO BOX 607\n\nCHIPLEY, FL 32433"}},{"type":"Feature","geometry":{"type":"Point","coordinates":[-86.874968,30.854941]},"properties":{"OBJECTID":210,"SOURCE":"PWS - Drinking Water","NAME":"KARICK LAKE NORTH","TYPE":"NONCOMMUNITY","FACILITYID":"1460391","STATUS":"Unknown","ADDRESS":"11650 MUNSON HWY\nMILTON, FL 32570"}},{"type":"Feature","geometry":{"type":"Point","coordinates":[-86.459305,30.966899]},"properties":{"OBJECTID":211,"SOURCE":"PWS - Drinking Water","NAME":"LAUREL HILL, CITY OF","TYPE":"COMMUNITY","FACILITYID":"1460416","STATUS":"Unknown","ADDRESS":"8209 HIGHWAY 85 N\nLAUREL HILL, FL 32567"}},{"type":"Feature","geometry":{"type":"Point","coordinates":[-86.663413,30.412361]},"properties":{"OBJECTID":212,"SOURCE":"PWS - Drinking Water","NAME":"MARY ESTHER, CITY OF","TYPE":"COMMUNITY","FACILITYID":"1460455","STATUS":"Unknown","ADDRESS":"TOWN HALL, 195 CHRISTOBAL RD. N\nMARY ESTHER, FL 32569"}},{"type":"Feature","geometry":{"type":"Point","coordinates":[-86.650547,30.756779]},"properties":{"OBJECTID":213,"SOURCE":"PWS - Drinking Water","NAME":"MILLIGAN WATER SYSTEM, INC.","TYPE":"COMMUNITY","FACILITYID":"1460472","STATUS":"Unknown","ADDRESS":"5340 HIGHWAY 4\nBAKER, FL 32531"}},{"type":"Feature","geometry":{"type":"Point","coordinates":[-86.629235,30.461418]},"properties":{"OBJECTID":214,"SOURCE":"PWS - Drinking Water","NAME":"OKALOOSA CO.WTR.& SWR.SYSTEM","TYPE":"COMMUNITY","FACILITYID":"1460506","STATUS":"Unknown","ADDRESS":"1804 LEWIS TURNER BLVD, STE 300\nFORT WALTON BEACH, FL 32547"}},{"type":"Feature","geometry":{"type":"Point","coordinates":[-86.48095,30.3979]},"properties":{"OBJECTID":215,"SOURCE":"PWS - Drinking Water","NAME":"EGLIN USCG STATION (DESTIN)","TYPE":"NONTRANSIENT NONCOMMUNITY","FACILITYID":"1460704","STATUS":"Unknown","ADDRESS":"2000 MIRACLE STRIP PARKWAYP O BOX 1289\n\nDESTIN, FL 32541"}},{"type":"Feature","geometry":{"type":"Point","coordinates":[-86.417298,30.484233]},"properties":{"OBJECTID":216,"SOURCE":"PWS - Drinking Water","NAME":"OKALOOSA COUNTY BLUEWATER BAY-RAINTREE","TYPE":"COMMUNITY","FACILITYID":"1460775","STATUS":"Unknown","ADDRESS":"HWY. 20 AND BLUEWATER ROAD\nNICEVILLE, FL 32578"}},{"type":"Feature","geometry":{"type":"Point","coordinates":[-86.67613,30.423058]},"properties":{"OBJECTID":217,"SOURCE":"PWS - Drinking Water","NAME":"HURLBURT FIELD AFB WATER SYSTEM","TYPE":"COMMUNITY","FACILITYID":"1460782","STATUS":"Unknown","ADDRESS":"415 INDEPENDENCE RD\nHURLBURT FIELD, FL 32544"}},{"type":"Feature","geometry":{"type":"Point","coordinates":[-86.488271,30.472643]},"properties":{"OBJECTID":218,"SOURCE":"PWS - Drinking Water","NAME":"EGLIN MAIN","TYPE":"COMMUNITY","FACILITYID":"1460826","STATUS":"Unknown","ADDRESS":"608 RANGE RD.\nEGLIN AFB, FL 32542"}},{"type":"Feature","geometry":{"type":"Point","coordinates":[-86.488271,30.472643]},"properties":{"OBJECTID":219,"SOURCE":"PWS - Drinking Water","NAME":"EGLIN WEST/HOUSING","TYPE":"COMMUNITY","FACILITYID":"1460828","STATUS":"Unknown","ADDRESS":"608 RANGE RD.\nEGLIN AFB, FL 32542"}},{"type":"Feature","geometry":{"type":"Point","coordinates":[-86.561693,30.492236]},"properties":{"OBJECTID":220,"SOURCE":"PWS - Drinking Water","NAME":"EGLIN AFB DUKE FIELD 3","TYPE":"NONTRANSIENT NONCOMMUNITY","FACILITYID":"1460829","STATUS":"Unknown","ADDRESS":"BLDG 3031, DUKE FIELD(HWY 85 NORTH)\n\nEGLIN AFB, FL 32542"}},{"type":"Feature","geometry":{"type":"Point","coordinates":[-86.558805,30.481755]},"properties":{"OBJECTID":221,"SOURCE":"PWS - Drinking Water","NAME":"EGLIN AUX. 6 RANGER CAMP","TYPE":"COMMUNITY","FACILITYID":"1460830","STATUS":"Unknown","ADDRESS":"P.O BOX 1869\nEGLIN AFB, FL 32542"}},{"type":"Feature","geometry":{"type":"Point","coordinates":[-86.874968,30.854941]},"properties":{"OBJECTID":222,"SOURCE":"PWS - Drinking Water","NAME":"BONE CREEK RECREATION AREA","TYPE":"NONCOMMUNITY","FACILITYID":"1460914","STATUS":"Unknown","ADDRESS":"11650 MUNSON HWY\nMILTON, FL 32570"}},{"type":"Feature","geometry":{"type":"Point","coordinates":[-86.527568,30.694697]},"properties":{"OBJECTID":223,"SOURCE":"PWS - Drinking Water","NAME":"OKALOOSA CORRECTIONAL INST.","TYPE":"COMMUNITY","FACILITYID":"1464034","STATUS":"Unknown","ADDRESS":"3189 COLONEL GREG MALLOY ROAD\nCRESTVIEW, FL 32539"}},{"type":"Feature","geometry":{"type":"Point","coordinates":[-86.874968,30.854941]},"properties":{"OBJECTID":224,"SOURCE":"PWS - Drinking Water","NAME":"KARICK LAKE SOUTH REC AREA","TYPE":"NONCOMMUNITY","FACILITYID":"1464042","STATUS":"Unknown","ADDRESS":"11650 MUNSON HWY\nMILTON, FL 32570"}},{"type":"Feature","geometry":{"type":"Point","coordinates":[-86.874968,30.854941]},"properties":{"OBJECTID":225,"SOURCE":"PWS - Drinking Water","NAME":"HURRICANE LAKE SOUTH REC AREA","TYPE":"NONCOMMUNITY","FACILITYID":"1464043","STATUS":"Unknown","ADDRESS":"11650 MUNSON HWY\nMILTON, FL 32570"}},{"type":"Feature","geometry":{"type":"Point","coordinates":[-86.629235,30.461418]},"properties":{"OBJECTID":226,"SOURCE":"PWS - Drinking Water","NAME":"OKALOOSA COUNTY  MID SYSTEM (CRESTVIEW)","TYPE":"COMMUNITY","FACILITYID":"1464044","STATUS":"Unknown","ADDRESS":"1804 LEWIS TURNER BLVDSUITE 300\n\nFT. WALTON BEACH, FL 32547"}},{"type":"Feature","geometry":{"type":"Point","coordinates":[-86.585814,30.43442]},"properties":{"OBJECTID":227,"SOURCE":"PWS - Drinking Water","NAME":"VERTICAL BRIDGE TOWERS II, LLC","TYPE":"NONCOMMUNITY","FACILITYID":"1464050","STATUS":"Unknown","ADDRESS":"209 SNUG HARBOUR DRIVE\nSHALIMAR, FL 32579"}},{"type":"Feature","geometry":{"type":"Point","coordinates":[-86.558805,30.481755]},"properties":{"OBJECTID":228,"SOURCE":"PWS - Drinking Water","NAME":"EGLIN SITE C-3 (LASER)","TYPE":"NONTRANSIENT NONCOMMUNITY","FACILITYID":"1464061","STATUS":"Unknown","ADDRESS":"BLDG. 2102, SITE C-3 ROAD(OFF STATE HWY 285, NORTH OF NICEVILLE)\n\nEGLIN AFB, FL 32542"}},{"type":"Feature","geometry":{"type":"Point","coordinates":[-87.05859,30.583298]},"properties":{"OBJECTID":229,"SOURCE":"PWS - Drinking Water","NAME":"BAGDAD-GARCON POINT WATER SYSTEM","TYPE":"COMMUNITY","FACILITYID":"1570042","STATUS":"Unknown","ADDRESS":"6368 DALISA ROAD\nMILTON, FL 32583"}},{"type":"Feature","geometry":{"type":"Point","coordinates":[-86.874968,30.854941]},"properties":{"OBJECTID":230,"SOURCE":"PWS - Drinking Water","NAME":"BEAR LAKE RECREATION AREA","TYPE":"NONCOMMUNITY","FACILITYID":"1570060","STATUS":"Unknown","ADDRESS":"11650 MUNSON HWY\nMILTON, FL 32570"}},{"type":"Feature","geometry":{"type":"Point","coordinates":[-87.050446,30.885747]},"properties":{"OBJECTID":231,"SOURCE":"PWS - Drinking Water","NAME":"BERRYDALE WATER SYSTEM","TYPE":"COMMUNITY","FACILITYID":"1570064","STATUS":"Unknown","ADDRESS":"12400 HIGHWAY 87 N\nMILTON, FL 32570"}},{"type":"Feature","geometry":{"type":"Point","coordinates":[-86.874968,30.854941]},"properties":{"OBJECTID":232,"SOURCE":"PWS - Drinking Water","NAME":"BLACKWATER FORESTRY HEADQUARTERS","TYPE":"NONTRANSIENT NONCOMMUNITY","FACILITYID":"1570074","STATUS":"Unknown","ADDRESS":"11650 MUNSON HWY\nMILTON, FL 32570"}},{"type":"Feature","geometry":{"type":"Point","coordinates":[-87.194152,30.762662]},"properties":{"OBJECTID":233,"SOURCE":"PWS - Drinking Water","NAME":"CHUMUCKLA WATER SYSTEM, INC.","TYPE":"COMMUNITY","FACILITYID":"1570140","STATUS":"Unknown","ADDRESS":"3007 APACHE DRIVE\nPACE, FL 32571"}},{"type":"Feature","geometry":{"type":"Point","coordinates":[-87.034955,30.618178]},"properties":{"OBJECTID":234,"SOURCE":"PWS - Drinking Water","NAME":"MILTON, CITY OF WATER SYSTEM","TYPE":"COMMUNITY","FACILITYID":"1570146","STATUS":"Unknown","ADDRESS":"6903 MUNICIPAL DRIVE\nMILTON, FL 32570"}},{"type":"Feature","geometry":{"type":"Point","coordinates":[-86.874968,30.854941]},"properties":{"OBJECTID":235,"SOURCE":"PWS - Drinking Water","NAME":"CAMP PAQUETTE RECREATION AREA","TYPE":"NONCOMMUNITY","FACILITYID":"1570206","STATUS":"Unknown","ADDRESS":"11650 MUNSON HWY\nMILTON, FL 32570"}},{"type":"Feature","geometry":{"type":"Point","coordinates":[-86.954994,30.649311]},"properties":{"OBJECTID":236,"SOURCE":"PWS - Drinking Water","NAME":"EAST MILTON WATER SYSTEM","TYPE":"COMMUNITY","FACILITYID":"1570232","STATUS":"Unknown","ADDRESS":"5959 JEFF ATES ROAD\nMILTON, FL 32583"}},{"type":"Feature","geometry":{"type":"Point","coordinates":[-87.16885,30.36631]},"properties":{"OBJECTID":237,"SOURCE":"PWS - Drinking Water","NAME":"GULF BREEZE WATER DEPARTMENT","TYPE":"COMMUNITY","FACILITYID":"1570316","STATUS":"Unknown","ADDRESS":"P.O. BOX 640\nGULF BREEZE, FL 32562"}},{"type":"Feature","geometry":{"type":"Point","coordinates":[-86.863103,30.431848]},"properties":{"OBJECTID":238,"SOURCE":"PWS - Drinking Water","NAME":"HOLLEY-NAVARRE WATER SYSTEM","TYPE":"COMMUNITY","FACILITYID":"1570349","STATUS":"Unknown","ADDRESS":"8574 TURKEY BLUFF RD.P.O. BOX 6539\n\nNAVARRE, FL 32566"}},{"type":"Feature","geometry":{"type":"Point","coordinates":[-86.874968,30.854941]},"properties":{"OBJECTID":239,"SOURCE":"PWS - Drinking Water","NAME":"COLDWATER STABLES RECREATION  AREA","TYPE":"NONCOMMUNITY","FACILITYID":"1570357","STATUS":"Unknown","ADDRESS":"11650 MUNSON HWY\nMILTON, FL 32570"}},{"type":"Feature","geometry":{"type":"Point","coordinates":[-87.160419,30.953073]},"properties":{"OBJECTID":240,"SOURCE":"PWS - Drinking Water","NAME":"JAY, TOWN OF -  UTILITIES DEPT.","TYPE":"COMMUNITY","FACILITYID":"1570384","STATUS":"Unknown","ADDRESS":"3695 HIGHWAY 4\nJAY, FL 32565"}},{"type":"Feature","geometry":{"type":"Point","coordinates":[-87.015975,30.39728]},"properties":{"OBJECTID":241,"SOURCE":"PWS - Drinking Water","NAME":"MIDWAY WATER SYSTEM, INC.","TYPE":"COMMUNITY","FACILITYID":"1570470","STATUS":"Unknown","ADDRESS":"4971 GULF BREEZE PARKWAY\nGULF BREEZE, FL 32561"}},{"type":"Feature","geometry":{"type":"Point","coordinates":[-87.158908,30.92465]},"properties":{"OBJECTID":242,"SOURCE":"PWS - Drinking Water","NAME":"MOORE CREEK MOUNT CARMEL UTILITIES","TYPE":"COMMUNITY","FACILITYID":"1570479","STATUS":"Unknown","ADDRESS":"3728 NOWLING ROADPOST OFFICE BOX 626\n\nJAY, FL 32565"}},{"type":"Feature","geometry":{"type":"Point","coordinates":[-87.019468,30.709556]},"properties":{"OBJECTID":243,"SOURCE":"PWS - Drinking Water","NAME":"NAS WHITING FIELD","TYPE":"COMMUNITY","FACILITYID":"1570489","STATUS":"Unknown","ADDRESS":"7183 LANGLEY ST, BLDG 1416WHITING FIELD\n\nMILTON, FL 32570"}},{"type":"Feature","geometry":{"type":"Point","coordinates":[-87.03673,30.62274]},"properties":{"OBJECTID":244,"SOURCE":"PWS - Drinking Water","NAME":"POINT BAKER WATER SYSTEM, INC.","TYPE":"COMMUNITY","FACILITYID":"1570540","STATUS":"Unknown","ADDRESS":"6857 HIGHWAY 89\nMILTON, FL 32570"}},{"type":"Feature","geometry":{"type":"Point","coordinates":[-87.111976,30.376193]},"properties":{"OBJECTID":245,"SOURCE":"PWS - Drinking Water","NAME":"SOUTH SANTA ROSA UTILITIES","TYPE":"COMMUNITY","FACILITYID":"1570593","STATUS":"Unknown","ADDRESS":"1116 CORONADO DRIVE\nGULF BREEZE, FL 32563"}},{"type":"Feature","geometry":{"type":"Point","coordinates":[-87.180814,30.59726]},"properties":{"OBJECTID":246,"SOURCE":"PWS - Drinking Water","NAME":"PACE WATER SYSTEM, INC.","TYPE":"COMMUNITY","FACILITYID":"1570671","STATUS":"Unknown","ADDRESS":"4401 WOODBINE ROAD\nPACE, FL 32571"}},{"type":"Feature","geometry":{"type":"Point","coordinates":[-86.879192,30.378309]},"properties":{"OBJECTID":247,"SOURCE":"PWS - Drinking Water","NAME":"NAVARRE BEACH WATER SYSTEM","TYPE":"COMMUNITY","FACILITYID":"1570874","STATUS":"Unknown","ADDRESS":"1411 UTILITY DRIVE\nNAVARRE BEACH, FL 32566"}},{"type":"Feature","geometry":{"type":"Point","coordinates":[-86.8747,30.424445]},"properties":{"OBJECTID":248,"SOURCE":"PWS - Drinking Water","NAME":"CHOCTAW FIELD","TYPE":"NONTRANSIENT NONCOMMUNITY","FACILITYID":"1570875","STATUS":"Unknown","ADDRESS":"CHOCTAW FIELD ROAD\nNAVARRE, FL 32566"}},{"type":"Feature","geometry":{"type":"Point","coordinates":[-84.376961,30.117099]},"properties":{"OBJECTID":249,"SOURCE":"PWS - Drinking Water","NAME":"NEWPORT PARK","TYPE":"NONCOMMUNITY","FACILITYID":"1650495","STATUS":"Unknown","ADDRESS":"79 RECREATION DRIVE\nCRAWFORDVILLE, FL 32327"}},{"type":"Feature","geometry":{"type":"Point","coordinates":[-84.220074,30.189385]},"properties":{"OBJECTID":250,"SOURCE":"PWS - Drinking Water","NAME":"ST. MARKS POWDER, INC.","TYPE":"NONTRANSIENT NONCOMMUNITY","FACILITYID":"1650508","STATUS":"Unknown","ADDRESS":"7121 COASTAL HWY\nCRAWFORDVILLE, FL 32327"}},{"type":"Feature","geometry":{"type":"Point","coordinates":[-84.39643,30.02012]},"properties":{"OBJECTID":251,"SOURCE":"PWS - Drinking Water","NAME":"PANACEA AREA WATER SYSTEM","TYPE":"COMMUNITY","FACILITYID":"1650514","STATUS":"Unknown","ADDRESS":"P O BOX 215\nPANACEA, FL 32346"}},{"type":"Feature","geometry":{"type":"Point","coordinates":[-84.491361,30.062046]},"properties":{"OBJECTID":252,"SOURCE":"PWS - Drinking Water","NAME":"SOPCHOPPY, CITY OF","TYPE":"COMMUNITY","FACILITYID":"1650612","STATUS":"Unknown","ADDRESS":"100 MUNICIPAL AVENUE\nSOPCHOPPY, FL 32358"}},{"type":"Feature","geometry":{"type":"Point","coordinates":[-84.204779,30.157767]},"properties":{"OBJECTID":253,"SOURCE":"PWS - Drinking Water","NAME":"ST. MARKS, CITY OF WATER SYS.","TYPE":"COMMUNITY","FACILITYID":"1650630","STATUS":"Unknown","ADDRESS":"788 PORT LEON DRIVE\nST. MARKS, FL 32355"}},{"type":"Feature","geometry":{"type":"Point","coordinates":[-84.270166,30.195854]},"properties":{"OBJECTID":254,"SOURCE":"PWS - Drinking Water","NAME":"MYSTERIOUS WATERS SUBDIVISION","TYPE":"COMMUNITY","FACILITYID":"1650778","STATUS":"Unknown","ADDRESS":"2 MYSTERIOUS WATERS WAY\nCRAWFORDVILLE, FL 32327"}},{"type":"Feature","geometry":{"type":"Point","coordinates":[-84.597887,30.585666]},"properties":{"OBJECTID":255,"SOURCE":"PWS - Drinking Water","NAME":"WAKULLA REGIONAL-(AKA GULF COAST)","TYPE":"COMMUNITY","FACILITYID":"1650785","STATUS":"Unknown","ADDRESS":"1640 WEST JEFFERSON STREET\nQUINCY, FL 32351"}},{"type":"Feature","geometry":{"type":"Point","coordinates":[-84.179948,30.199364]},"properties":{"OBJECTID":256,"SOURCE":"PWS - Drinking Water","NAME":"OUZTS' TOO OYSTER BAR","TYPE":"NONCOMMUNITY","FACILITYID":"1650788","STATUS":"Unknown","ADDRESS":"7968 COASTAL HWY\nCRAWFORDVILLE, FL 32327"}},{"type":"Feature","geometry":{"type":"Point","coordinates":[-84.208337,30.257246]},"properties":{"OBJECTID":257,"SOURCE":"PWS - Drinking Water","NAME":"WINCO UTILITIES W/S","TYPE":"COMMUNITY","FACILITYID":"1650791","STATUS":"Unknown","ADDRESS":"137 HERLONG DR.(WASTEWATER PLANT)\n\nCRAWFORDVILLE, FL 32327"}},{"type":"Feature","geometry":{"type":"Point","coordinates":[-84.364311,30.184617]},"properties":{"OBJECTID":258,"SOURCE":"PWS - Drinking Water","NAME":"WAKULLA WATER SYSTEM (RIVERSINK)","TYPE":"COMMUNITY","FACILITYID":"1650792","STATUS":"Unknown","ADDRESS":"340 TRICE LANE\nCRAWFORDVILLE, FL 32327"}},{"type":"Feature","geometry":{"type":"Point","coordinates":[-86.208048,30.730674]},"properties":{"OBJECTID":259,"SOURCE":"PWS - Drinking Water","NAME":"SPANISH TRAIL SCOUT RESERVATION","TYPE":"NONCOMMUNITY","FACILITYID":"1660018","STATUS":"Unknown","ADDRESS":"315 PAT COVELL RD\nDEFUNIAK SPRINGS, FL 32433"}},{"type":"Feature","geometry":{"type":"Point","coordinates":[-85.962064,30.471574]},"properties":{"OBJECTID":260,"SOURCE":"PWS - Drinking Water","NAME":"BRUCE CAFE AND MOTEL","TYPE":"NONCOMMUNITY","FACILITYID":"1660019","STATUS":"Unknown","ADDRESS":"10417 HIGHWAY 20\nBRUCE, FL 32455"}},{"type":"Feature","geometry":{"type":"Point","coordinates":[-86.080181,30.729735]},"properties":{"OBJECTID":261,"SOURCE":"PWS - Drinking Water","NAME":"ARGYLE WATER SYSTEM, INC.","TYPE":"COMMUNITY","FACILITYID":"1660028","STATUS":"Unknown","ADDRESS":"129 SHELTER RD\nDEFUNIAK SPRINGS, FL 32433"}},{"type":"Feature","geometry":{"type":"Point","coordinates":[-86.118364,30.720156]},"properties":{"OBJECTID":262,"SOURCE":"PWS - Drinking Water","NAME":"DEFUNIAK SPRINGS W/S, CITY OF","TYPE":"COMMUNITY","FACILITYID":"1660196","STATUS":"Unknown","ADDRESS":"121 WEST MAIN STREET\nDEFUNIAK SPRINGS, FL 32433"}},{"type":"Feature","geometry":{"type":"Point","coordinates":[-86.137879,30.498894]},"properties":{"OBJECTID":263,"SOURCE":"PWS - Drinking Water","NAME":"FREEPORT, CITY OF","TYPE":"COMMUNITY","FACILITYID":"1660290","STATUS":"Unknown","ADDRESS":"112 HIGHWAY 20 W (CITY HALL)P.O. BOX 339\n\nFREEPORT, FL 32439"}},{"type":"Feature","geometry":{"type":"Point","coordinates":[-86.342415,30.376931]},"properties":{"OBJECTID":264,"SOURCE":"PWS - Drinking Water","NAME":"CAMP GULF (FORMERLY CAMPING ON THE GULF)","TYPE":"NONCOMMUNITY","FACILITYID":"1660347","STATUS":"Unknown","ADDRESS":"10005 US HIGHWAY 98\nMIRAMAR BEACH, FL 32550"}},{"type":"Feature","geometry":{"type":"Point","coordinates":[-86.00806,30.279851]},"properties":{"OBJECTID":265,"SOURCE":"PWS - Drinking Water","NAME":"INLET BEACH WATER SYSTEM, INC.","TYPE":"COMMUNITY","FACILITYID":"1660370","STATUS":"Unknown","ADDRESS":"95 N WALL STREET\nINLET BEACH, FL 32461"}},{"type":"Feature","geometry":{"type":"Point","coordinates":[-86.337665,30.479046]},"properties":{"OBJECTID":266,"SOURCE":"PWS - Drinking Water","NAME":"LAKE SHARON ESTATES","TYPE":"COMMUNITY","FACILITYID":"1660407","STATUS":"Unknown","ADDRESS":"1 KATHY LANE\nFREEPORT, FL 32439"}},{"type":"Feature","geometry":{"type":"Point","coordinates":[-86.303118,30.973649]},"properties":{"OBJECTID":267,"SOURCE":"PWS - Drinking Water","NAME":"PAXTON, CITY OF","TYPE":"COMMUNITY","FACILITYID":"1660524","STATUS":"Unknown","ADDRESS":"21872 HWY 331 N  (LAUREL HILL, FL 32567)P.O. BOX 5200\n\nPAXTON, FL 32538"}},{"type":"Feature","geometry":{"type":"Point","coordinates":[-86.10821,30.35691]},"properties":{"OBJECTID":268,"SOURCE":"PWS - Drinking Water","NAME":"REGIONAL UTILITIES WATER SYSTEM","TYPE":"COMMUNITY","FACILITYID":"1660596","STATUS":"Unknown","ADDRESS":"4432 US HIGHWAY 98 EAST\nSANTA ROSA BEACH, FL 32459"}},{"type":"Feature","geometry":{"type":"Point","coordinates":[-86.35856,30.376858]},"properties":{"OBJECTID":269,"SOURCE":"PWS - Drinking Water","NAME":"SOUTH WALTON UTILITY COMPANY","TYPE":"COMMUNITY","FACILITYID":"1660615","STATUS":"Unknown","ADDRESS":"369 MIRAMAR BEACH DRIVE\nMIRAMAR BEACH, FL 32550"}},{"type":"Feature","geometry":{"type":"Point","coordinates":[-86.307378,30.76341]},"properties":{"OBJECTID":270,"SOURCE":"PWS - Drinking Water","NAME":"MOSSY HEAD WATER WORKS, INC.","TYPE":"COMMUNITY","FACILITYID":"1660803","STATUS":"Unknown","ADDRESS":"1485 COUNTY HIGHWAY 1087\nDEFUNIAK SPRINGS, FL 32433"}},{"type":"Feature","geometry":{"type":"Point","coordinates":[-86.483252,30.519863]},"properties":{"OBJECTID":271,"SOURCE":"PWS - Drinking Water","NAME":"NORTH BAY WATER SYSTEM","TYPE":"COMMUNITY","FACILITYID":"1664019","STATUS":"Unknown","ADDRESS":"HIGHWAY 20\nNICEVILLE, FL 32578"}},{"type":"Feature","geometry":{"type":"Point","coordinates":[-86.558805,30.481755]},"properties":{"OBJECTID":272,"SOURCE":"PWS - Drinking Water","NAME":"EGLIN SITE C-6 (RADAR)","TYPE":"NONTRANSIENT NONCOMMUNITY","FACILITYID":"1664058","STATUS":"Unknown","ADDRESS":"EGLIN SITE C-6 ROAD(N. OF PORTLAND IN WALTON CO.)\n\nEGLIN AFB, FL 32542"}},{"type":"Feature","geometry":{"type":"Point","coordinates":[-86.180828,30.778002999999998]},"properties":{"OBJECTID":273,"SOURCE":"PWS - Drinking Water","NAME":"TWIN LAKES RESORT (HOLLEY-KING LAKES)","TYPE":"NONCOMMUNITY","FACILITYID":"1664063","STATUS":"Unknown","ADDRESS":"580 HOLLEY KING ROAD\nDEFUNIAK SPRINGS, FL 32433"}},{"type":"Feature","geometry":{"type":"Point","coordinates":[-85.814676,30.773268]},"properties":{"OBJECTID":274,"SOURCE":"PWS - Drinking Water","NAME":"CARYVILLE, TOWN OF","TYPE":"COMMUNITY","FACILITYID":"1670119","STATUS":"Unknown","ADDRESS":"4436 OLD SPANISH TRAIL\nCARYVILLE, FL 32427"}},{"type":"Feature","geometry":{"type":"Point","coordinates":[-85.550193,30.781234]},"properties":{"OBJECTID":275,"SOURCE":"PWS - Drinking Water","NAME":"CHIPLEY, CITY OF","TYPE":"COMMUNITY","FACILITYID":"1670135","STATUS":"Unknown","ADDRESS":"692 RUSTIN ROAD\nCHIPLEY, FL 32428"}},{"type":"Feature","geometry":{"type":"Point","coordinates":[-85.529002,30.7314]},"properties":{"OBJECTID":276,"SOURCE":"PWS - Drinking Water","NAME":"FALLING WATERS STATE PARK","TYPE":"NONCOMMUNITY","FACILITYID":"1670257","STATUS":"Unknown","ADDRESS":"1130 STATE PARK ROAD\nCHIPLEY, FL 32428"}},{"type":"Feature","geometry":{"type":"Point","coordinates":[-85.850065,30.570364]},"properties":{"OBJECTID":277,"SOURCE":"PWS - Drinking Water","NAME":"HOLMES CREEK WATER WORKS I","TYPE":"NONCOMMUNITY","FACILITYID":"1670351","STATUS":"Unknown","ADDRESS":"4932 STUMPKNOCKER TRAIL\nVERNON, FL 32462"}},{"type":"Feature","geometry":{"type":"Point","coordinates":[-85.881578,30.427369]},"properties":{"OBJECTID":278,"SOURCE":"PWS - Drinking Water","NAME":"PINE LOG STATE FOREST (SAND POND)","TYPE":"NONCOMMUNITY","FACILITYID":"1670531","STATUS":"Unknown","ADDRESS":"5583-A LONGLEAF ROAD\nEBRO, FL 32437"}},{"type":"Feature","geometry":{"type":"Point","coordinates":[-85.598342,30.544603]},"properties":{"OBJECTID":279,"SOURCE":"PWS - Drinking Water","NAME":"SUNNY HILLS UTILITY COMPANY","TYPE":"COMMUNITY","FACILITYID":"1670647","STATUS":"Fully Operational","ADDRESS":"3810 GABLES BLVD\nCHIPLEY, FL 32428"}},{"type":"Feature","geometry":{"type":"Point","coordinates":[-85.784753,30.567823]},"properties":{"OBJECTID":280,"SOURCE":"PWS - Drinking Water","NAME":"VERNON, CITY OF","TYPE":"COMMUNITY","FACILITYID":"1670710","STATUS":"Unknown","ADDRESS":"P.O. BOX 340C/O TRACY WALKER, CITY CLERK\n\nVERNON, FL 32462"}},{"type":"Feature","geometry":{"type":"Point","coordinates":[-85.874129,30.445767]},"properties":{"OBJECTID":281,"SOURCE":"PWS - Drinking Water","NAME":"WASHINGTON CO. KENNEL CLUB","TYPE":"NONTRANSIENT NONCOMMUNITY","FACILITYID":"1670719","STATUS":"Unknown","ADDRESS":"6558 DOGTRACK ROAD\nEBRO, FL 32437"}},{"type":"Feature","geometry":{"type":"Point","coordinates":[-85.589023,30.629516]},"properties":{"OBJECTID":282,"SOURCE":"PWS - Drinking Water","NAME":"WAUSAU, TOWN OF","TYPE":"COMMUNITY","FACILITYID":"1670721","STATUS":"Unknown","ADDRESS":"2752 JACKSON STREET\nWAUSAU, FL 32463"}},{"type":"Feature","geometry":{"type":"Point","coordinates":[-85.66052,30.50222]},"properties":{"OBJECTID":283,"SOURCE":"PWS - Drinking Water","NAME":"GREENHEAD RAINBOW STORE","TYPE":"NONCOMMUNITY","FACILITYID":"1670724","STATUS":"Unknown","ADDRESS":"5763 HWY 77AKA. RAINBOW GROCERY & DELI\n\nCHIPLEY, FL 32428"}},{"type":"Feature","geometry":{"type":"Point","coordinates":[-85.809371,30.577626]},"properties":{"OBJECTID":284,"SOURCE":"PWS - Drinking Water","NAME":"ONE STOP SHOP","TYPE":"NONCOMMUNITY","FACILITYID":"1670726","STATUS":"Unknown","ADDRESS":"4498 HWY 79\nVERNON, FL 32462"}},{"type":"Feature","geometry":{"type":"Point","coordinates":[-85.875812,30.443556]},"properties":{"OBJECTID":285,"SOURCE":"PWS - Drinking Water","NAME":"EBRO MOTEL","TYPE":"NONCOMMUNITY","FACILITYID":"1670727","STATUS":"Unknown","ADDRESS":"5312 CAPTAIN FRITZ RD.\nEBRO, FL 32437"}},{"type":"Feature","geometry":{"type":"Point","coordinates":[-85.87419,30.443949]},"properties":{"OBJECTID":286,"SOURCE":"PWS - Drinking Water","NAME":"QUICK STOP #2 (EBRO JIFFY)","TYPE":"NONCOMMUNITY","FACILITYID":"1670729","STATUS":"Unknown","ADDRESS":"6590 DOGTRACK ROAD (HWY. 79)INTERSECTION OF SR 20 AND HWY 79\n\nEBRO, FL 32437"}},{"type":"Feature","geometry":{"type":"Point","coordinates":[-85.686431,30.687289]},"properties":{"OBJECTID":287,"SOURCE":"PWS - Drinking Water","NAME":"GOD'S VINEYARD WORSHIP CENTER","TYPE":"NONCOMMUNITY","FACILITYID":"1670731","STATUS":"Unknown","ADDRESS":"HIGHWAY 79 NORTH\nVERNON, FL 32425"}},{"type":"Feature","geometry":{"type":"Point","coordinates":[-85.659549,30.51765]},"properties":{"OBJECTID":288,"SOURCE":"PWS - Drinking Water","NAME":"NORTHWEST FLORIDA RECEPTION CENTER","TYPE":"COMMUNITY","FACILITYID":"1670733","STATUS":"Fully Operational","ADDRESS":"AKA WASHINGTON CORRECTIONAL INSTITUTION4455 SAM MITCHELL DRIVE\n\nCHIPLEY, FL 32428"}},{"type":"Feature","geometry":{"type":"Point","coordinates":[-82.49428,29.79309]},"properties":{"OBJECTID":289,"SOURCE":"PWS - Drinking Water","NAME":"ALACHUA WTP","TYPE":"COMMUNITY","FACILITYID":"2010017","STATUS":"Partially Operational","ADDRESS":"14991 NW US-441, (SOUTH OF SR-241)\nALACHUA, FL 32616"}},{"type":"Feature","geometry":{"type":"Point","coordinates":[-82.43805,29.606704]},"properties":{"OBJECTID":290,"SOURCE":"PWS - Drinking Water","NAME":"ARREDONDO ESTATES","TYPE":"COMMUNITY","FACILITYID":"2010041","STATUS":"Fully Operational","ADDRESS":"S.W. 52ND AVENUE\nGAINESVILLE, FL 32608"}},{"type":"Feature","geometry":{"type":"Point","coordinates":[-82.417176,29.598975]},"properties":{"OBJECTID":291,"SOURCE":"PWS - Drinking Water","NAME":"PALMS OF ARCHER","TYPE":"COMMUNITY","FACILITYID":"2010042","STATUS":"Unknown","ADDRESS":"7117 S.W. ARCHER RD\nGAINESVILLE, FL 32608"}},{"type":"Feature","geometry":{"type":"Point","coordinates":[-82.518813,29.535129]},"properties":{"OBJECTID":292,"SOURCE":"PWS - Drinking Water","NAME":"ARCHER WATER SYSTEM","TYPE":"COMMUNITY","FACILITYID":"2010199","STATUS":"Unknown","ADDRESS":"12955 SW SR 45\nARCHER, FL 32618"}},{"type":"Feature","geometry":{"type":"Point","coordinates":[-82.567106,29.813799]},"properties":{"OBJECTID":293,"SOURCE":"PWS - Drinking Water","NAME":"HIGH SPRINGS WTP","TYPE":"COMMUNITY","FACILITYID":"2010201","STATUS":"Unknown","ADDRESS":"17380 NW US-441\nHIGH SPRINGS, FL 32643"}},{"type":"Feature","geometry":{"type":"Point","coordinates":[-82.617448,29.647169]},"properties":{"OBJECTID":294,"SOURCE":"PWS - Drinking Water","NAME":"NEWBERRY WTP","TYPE":"COMMUNITY","FACILITYID":"2010207","STATUS":"Unknown","ADDRESS":"120 NW 260TH ST.\nNEWBERRY, FL 32669"}},{"type":"Feature","geometry":{"type":"Point","coordinates":[-82.169118,29.790909]},"properties":{"OBJECTID":295,"SOURCE":"PWS - Drinking Water","NAME":"WALDO WTP","TYPE":"COMMUNITY","FACILITYID":"2010212","STATUS":"Unknown","ADDRESS":"14750 WEEKS STREET\nWALDO, FL 32694"}},{"type":"Feature","geometry":{"type":"Point","coordinates":[-82.296369,29.497221]},"properties":{"OBJECTID":296,"SOURCE":"PWS - Drinking Water","NAME":"MICANOPY INN","TYPE":"NONCOMMUNITY","FACILITYID":"2010264","STATUS":"Unknown","ADDRESS":"17110 SE CR-234\nMICANOPY, FL 32667"}},{"type":"Feature","geometry":{"type":"Point","coordinates":[-82.54146,29.874816]},"properties":{"OBJECTID":297,"SOURCE":"PWS - Drinking Water","NAME":"FLORIDA CITRUS CENTER # 95","TYPE":"NONCOMMUNITY","FACILITYID":"2010377","STATUS":"Unknown","ADDRESS":"18625 NORTHWEST CR-236\nHIGH SPRINGS, FL 32655"}},{"type":"Feature","geometry":{"type":"Point","coordinates":[-82.275003,29.758167]},"properties":{"OBJECTID":298,"SOURCE":"PWS - Drinking Water","NAME":"NHRA AUTO PLUS RACEWAY","TYPE":"NONCOMMUNITY","FACILITYID":"2010406","STATUS":"Unknown","ADDRESS":"11211 N. COUNTY ROAD 225\nGAINESVILLE, FL 32609"}},{"type":"Feature","geometry":{"type":"Point","coordinates":[-82.433862,29.773152]},"properties":{"OBJECTID":299,"SOURCE":"PWS - Drinking Water","NAME":"PHOENIX COMMERCIAL PARK","TYPE":"NONTRANSIENT NONCOMMUNITY","FACILITYID":"2010410","STATUS":"Unknown","ADDRESS":"12801 NW HIGHWAY 441\nALACHUA, FL 32615"}},{"type":"Feature","geometry":{"type":"Point","coordinates":[-82.086592,29.592371]},"properties":{"OBJECTID":300,"SOURCE":"PWS - Drinking Water","NAME":"HAWTHORNE WTP","TYPE":"COMMUNITY","FACILITYID":"2010477","STATUS":"Unknown","ADDRESS":"6700 SE 221ST ST.\nHAWTHORNE, FL 32640"}},{"type":"Feature","geometry":{"type":"Point","coordinates":[-82.102923,29.516031]},"properties":{"OBJECTID":301,"SOURCE":"PWS - Drinking Water","NAME":"LOCHLOOSA HARBOR RV PARK","TYPE":"NONCOMMUNITY","FACILITYID":"2010591","STATUS":"Unknown","ADDRESS":"15008 SE HWY 301\nHAWTHORNE, FL 32640"}},{"type":"Feature","geometry":{"type":"Point","coordinates":[-82.283558,29.634294]},"properties":{"OBJECTID":302,"SOURCE":"PWS - Drinking Water","NAME":"GATOR WATERWORKS WATER SYSTEM","TYPE":"COMMUNITY","FACILITYID":"2010612","STATUS":"Fully Operational","ADDRESS":"3260 SE 19TH AVENUE\nGAINESVILLE, FL 32604"}},{"type":"Feature","geometry":{"type":"Point","coordinates":[-82.591623,29.854134]},"properties":{"OBJECTID":303,"SOURCE":"PWS - Drinking Water","NAME":"KULAQUA YOUTH CAMP","TYPE":"NONCOMMUNITY","FACILITYID":"2010622","STATUS":"Unknown","ADDRESS":"23400 N.W. 212TH AVENUE\nHIGH SPRINGS, FL 32643"}},{"type":"Feature","geometry":{"type":"Point","coordinates":[-82.130207,29.779389]},"properties":{"OBJECTID":304,"SOURCE":"PWS - Drinking Water","NAME":"LAKE ALTO ESTATES MHP","TYPE":"COMMUNITY","FACILITYID":"2010625","STATUS":"Unknown","ADDRESS":"13516 NE COUNTY ROAD 1471\nWALDO, FL 32694"}},{"type":"Feature","geometry":{"type":"Point","coordinates":[-82.306242,29.534228]},"properties":{"OBJECTID":305,"SOURCE":"PWS - Drinking Water","NAME":"UF-LAKE WAUBURG","TYPE":"NONCOMMUNITY","FACILITYID":"2010642","STATUS":"Unknown","ADDRESS":"133 REGATTA DRIVE (OFF US-441)\nMICANOPY, FL 32267"}},{"type":"Feature","geometry":{"type":"Point","coordinates":[-82.286107,29.504409]},"properties":{"OBJECTID":306,"SOURCE":"PWS - Drinking Water","NAME":"MICANOPY WATER SYSTEM","TYPE":"COMMUNITY","FACILITYID":"2010749","STATUS":"Fully Operational","ADDRESS":"501 NW SEMINARY AVENUE\nMICANOPY, FL 32667"}},{"type":"Feature","geometry":{"type":"Point","coordinates":[-82.255562,29.617543]},"properties":{"OBJECTID":307,"SOURCE":"PWS - Drinking Water","NAME":"POWERS PARK","TYPE":"NONCOMMUNITY","FACILITYID":"2010802","STATUS":"Unknown","ADDRESS":"5910 SE HAWTHORNE RD\nGAINESVILLE, FL 32641"}},{"type":"Feature","geometry":{"type":"Point","coordinates":[-82.548754,29.875418]},"properties":{"OBJECTID":308,"SOURCE":"PWS - Drinking Water","NAME":"HIGH SPRINGS CAMPGROUND","TYPE":"NONCOMMUNITY","FACILITYID":"2010837","STATUS":"Unknown","ADDRESS":"24004 OLD BELLAMY ROAD\nHIGH SPRINGS, FL 32643"}},{"type":"Feature","geometry":{"type":"Point","coordinates":[-82.294952,29.519795]},"properties":{"OBJECTID":309,"SOURCE":"PWS - Drinking Water","NAME":"PAYNES PRAIRIE PRESERVE STATE PARK","TYPE":"NONCOMMUNITY","FACILITYID":"2010878","STATUS":"Fully Operational","ADDRESS":"100 SAVANAAH BLVD\nMICANOPY, FL 32667"}},{"type":"Feature","geometry":{"type":"Point","coordinates":[-82.159889,29.481561]},"properties":{"OBJECTID":310,"SOURCE":"PWS - Drinking Water","NAME":"RAWLINGS PARK","TYPE":"NONCOMMUNITY","FACILITYID":"2010934","STATUS":"Unknown","ADDRESS":"18700 SOUTH COUNTY ROAD 325\nHAWTHORNE, FL 32640"}},{"type":"Feature","geometry":{"type":"Point","coordinates":[-82.303097,29.70531]},"properties":{"OBJECTID":311,"SOURCE":"PWS - Drinking Water","NAME":"GRU - MURPHREE WTP","TYPE":"COMMUNITY","FACILITYID":"2010946","STATUS":"Unknown","ADDRESS":"1600 NE 53RD AVENUE\nGAINESVILLE, FL 32609"}},{"type":"Feature","geometry":{"type":"Point","coordinates":[-82.527908,29.808711]},"properties":{"OBJECTID":312,"SOURCE":"PWS - Drinking Water","NAME":"SANTA FE HILLS SUBDIVISION","TYPE":"COMMUNITY","FACILITYID":"2011006","STATUS":"Unknown","ADDRESS":"17325 NW 168TH AVENUE\nALACHUA, FL 32615"}},{"type":"Feature","geometry":{"type":"Point","coordinates":[-82.293687,29.496879]},"properties":{"OBJECTID":313,"SOURCE":"PWS - Drinking Water","NAME":"CAFE RISQUE","TYPE":"NONCOMMUNITY","FACILITYID":"2011118","STATUS":"Fully Operational","ADDRESS":"17035 SE CR-234\nMICANOPY, FL 32667"}},{"type":"Feature","geometry":{"type":"Point","coordinates":[-82.405228,29.607705]},"properties":{"OBJECTID":314,"SOURCE":"PWS - Drinking Water","NAME":"WESTGATE MANOR MHP","TYPE":"COMMUNITY","FACILITYID":"2011251","STATUS":"Unknown","ADDRESS":"5816-1 S.W. ARCHER RD.\nGAINESVILLE, FL 32608"}},{"type":"Feature","geometry":{"type":"Point","coordinates":[-82.163831,29.486124]},"properties":{"OBJECTID":315,"SOURCE":"PWS - Drinking Water","NAME":"YEARLING RESTAURANT","TYPE":"NONCOMMUNITY","FACILITYID":"2011286","STATUS":"Unknown","ADDRESS":"14531 EAST CR-325\nHAWTHORNE, FL 32640"}},{"type":"Feature","geometry":{"type":"Point","coordinates":[-82.167142,29.81907]},"properties":{"OBJECTID":316,"SOURCE":"PWS - Drinking Water","NAME":"WALDO FARMERS AND FLEA MARKET","TYPE":"NONCOMMUNITY","FACILITYID":"2011357","STATUS":"Unknown","ADDRESS":"17805 US HWY 301\nWALDO, FL 32694"}},{"type":"Feature","geometry":{"type":"Point","coordinates":[-82.51514,29.817178]},"properties":{"OBJECTID":317,"SOURCE":"PWS - Drinking Water","NAME":"TRAVELERS CAMPGROUND","TYPE":"NONCOMMUNITY","FACILITYID":"2011360","STATUS":"Unknown","ADDRESS":"17701 APRIL BLVD.\nALACHUA, FL 32615"}},{"type":"Feature","geometry":{"type":"Point","coordinates":[-82.215936,29.749923]},"properties":{"OBJECTID":318,"SOURCE":"PWS - Drinking Water","NAME":"AUSTIN CARY FOREST - UF","TYPE":"NONCOMMUNITY","FACILITYID":"2014159","STATUS":"Unknown","ADDRESS":"10625 NE WALDO RD\nGAINESVILLE, FL 32609"}},{"type":"Feature","geometry":{"type":"Point","coordinates":[-82.585341,29.65459]},"properties":{"OBJECTID":319,"SOURCE":"PWS - Drinking Water","NAME":"ALACHUA COUNTY AG. & EQUESTRIAN CENTER","TYPE":"NONCOMMUNITY","FACILITYID":"2014160","STATUS":"Unknown","ADDRESS":"23100 W NEWBERRY RD\nNEWBERRY, FL 32669"}},{"type":"Feature","geometry":{"type":"Point","coordinates":[-82.472773,29.617521]},"properties":{"OBJECTID":320,"SOURCE":"PWS - Drinking Water","NAME":"DIAMOND SPORTS ACTIVITY CENTER","TYPE":"NONCOMMUNITY","FACILITYID":"2014161","STATUS":"Fully Operational","ADDRESS":"4000 S.W. 122ND STREET\nGAINESVILLE, FL 32608"}},{"type":"Feature","geometry":{"type":"Point","coordinates":[-82.418015,29.727289]},"properties":{"OBJECTID":321,"SOURCE":"PWS - Drinking Water","NAME":"UF-CENTER FOR AQUATIC WEEDS","TYPE":"NONTRANSIENT NONCOMMUNITY","FACILITYID":"2014164","STATUS":"Fully Operational","ADDRESS":"7922 NW 71 STREET\nGAINESVILLE, FL 32606"}},{"type":"Feature","geometry":{"type":"Point","coordinates":[-82.64795,29.824038]},"properties":{"OBJECTID":322,"SOURCE":"PWS - Drinking Water","NAME":"POE SPRINGS PARK","TYPE":"NONCOMMUNITY","FACILITYID":"2014166","STATUS":"Unknown","ADDRESS":"28800 NW 182ND AVENUE\nHIGH SPRINGS, FL 32643"}},{"type":"Feature","geometry":{"type":"Point","coordinates":[-82.573916,29.653983]},"properties":{"OBJECTID":323,"SOURCE":"PWS - Drinking Water","NAME":"GREENFIELD PRESCHOOL","TYPE":"NONTRANSIENT NONCOMMUNITY","FACILITYID":"2014167","STATUS":"Unknown","ADDRESS":"21805 WEST NEWBERRY ROAD\nNEWBERRY, FL 32669"}},{"type":"Feature","geometry":{"type":"Point","coordinates":[-82.55305,29.654509]},"properties":{"OBJECTID":324,"SOURCE":"PWS - Drinking Water","NAME":"CHRISTIAN LIFE FELLOWSHIP","TYPE":"NONCOMMUNITY","FACILITYID":"2014172","STATUS":"Unknown","ADDRESS":"19817 W. NEWBERRY RD.\nNEWBERRY, FL 32669"}},{"type":"Feature","geometry":{"type":"Point","coordinates":[-82.293939,29.497599]},"properties":{"OBJECTID":325,"SOURCE":"PWS - Drinking Water","NAME":"PARADISE STORE #2","TYPE":"NONCOMMUNITY","FACILITYID":"2014175","STATUS":"Unknown","ADDRESS":"17030 SE COUNTY ROAD 234\nMICANOPY, FL 32667"}},{"type":"Feature","geometry":{"type":"Point","coordinates":[-82.293057,29.497329]},"properties":{"OBJECTID":326,"SOURCE":"PWS - Drinking Water","NAME":"CIRCLE K # 3914","TYPE":"NONCOMMUNITY","FACILITYID":"2014177","STATUS":"Fully Operational","ADDRESS":"17025 SE COUNTY ROAD 234\nMICANOPY, FL 32667"}},{"type":"Feature","geometry":{"type":"Point","coordinates":[-82.243838,29.677268]},"properties":{"OBJECTID":327,"SOURCE":"PWS - Drinking Water","NAME":"COPELAND PARK","TYPE":"NONCOMMUNITY","FACILITYID":"2014180","STATUS":"Unknown","ADDRESS":"7020 NE 27TH AVENUE\nGAINESVILLE, FL 32602"}},{"type":"Feature","geometry":{"type":"Point","coordinates":[-82.167093,29.834423]},"properties":{"OBJECTID":328,"SOURCE":"PWS - Drinking Water","NAME":"MUGSHOTS","TYPE":"NONCOMMUNITY","FACILITYID":"2014182","STATUS":"Unknown","ADDRESS":"19510 US HWY 301\nWALDO, FL 32694"}},{"type":"Feature","geometry":{"type":"Point","coordinates":[-82.16878,29.493313]},"properties":{"OBJECTID":329,"SOURCE":"PWS - Drinking Water","NAME":"CROSS CREEK MHP","TYPE":"COMMUNITY","FACILITYID":"2014196","STATUS":"Unknown","ADDRESS":"14200 SE 174TH PLACE\nHAWTHORNE, FL 32640"}},{"type":"Feature","geometry":{"type":"Point","coordinates":[-82.473984,29.567799]},"properties":{"OBJECTID":330,"SOURCE":"PWS - Drinking Water","NAME":"ARCHER COUNTRY STORE","TYPE":"NONCOMMUNITY","FACILITYID":"2014200","STATUS":"Unknown","ADDRESS":"12210 SOUTHWEST ARCHER ROAD\nARCHER, FL 32601"}},{"type":"Feature","geometry":{"type":"Point","coordinates":[-82.464544,29.813251]},"properties":{"OBJECTID":332,"SOURCE":"PWS - Drinking Water","NAME":"ALACHUA LEARNING CENTER","TYPE":"NONTRANSIENT NONCOMMUNITY","FACILITYID":"2014203","STATUS":"Unknown","ADDRESS":"11100 SR-235\nALACHUA, FL 32616"}},{"type":"Feature","geometry":{"type":"Point","coordinates":[-82.341815,29.869695]},"properties":{"OBJECTID":333,"SOURCE":"PWS - Drinking Water","NAME":"ACORN CLINIC","TYPE":"NONCOMMUNITY","FACILITYID":"2014204","STATUS":"Unknown","ADDRESS":"23320 N. SR 235\nBROOKER, FL 32622"}},{"type":"Feature","geometry":{"type":"Point","coordinates":[-82.127516,30.285639]},"properties":{"OBJECTID":334,"SOURCE":"PWS - Drinking Water","NAME":"MACCLENNY WTP","TYPE":"COMMUNITY","FACILITYID":"2020204","STATUS":"Unknown","ADDRESS":"307 WEST OHIO STREET\nMACCLENNY, FL 32063"}},{"type":"Feature","geometry":{"type":"Point","coordinates":[-82.388853,30.214513]},"properties":{"OBJECTID":335,"SOURCE":"PWS - Drinking Water","NAME":"OLUSTEE BATTLEFIELD MEMORIAL","TYPE":"NONCOMMUNITY","FACILITYID":"2020361","STATUS":"Unknown","ADDRESS":"5890 BATTLEFIELD TRAIL RD.\nSANDERSON, FL 32087"}},{"type":"Feature","geometry":{"type":"Point","coordinates":[-82.63952,30.191695]},"properties":{"OBJECTID":336,"SOURCE":"PWS - Drinking Water","NAME":"DOT I-10  WESTBOUND REST AREA","TYPE":"NONCOMMUNITY","FACILITYID":"2020532","STATUS":"Unknown","ADDRESS":"I-10 REST AREA IN OLUSTEE FOREST\nLAKE CITY, FL 32056"}},{"type":"Feature","geometry":{"type":"Point","coordinates":[-82.145025,30.227964]},